{"type":"FeatureCollection","category":"Flex Space","count":441,"units":441,"features":[{"type":"Feature","properties":{"name":"Baker O & P","addr":"2702-2720 SE Loop 820"},"geometry":{"type":"Point","coordinates":[-97.29156,32.66434]}},{"type":"Feature","properties":{"name":"Lockheed Martin","addr":"1 Lockheed Blvd"},"geometry":{"type":"Point","coordinates":[-97.44591,32.76589]}},{"type":"Feature","properties":{"name":"Thelin Recycling Co L.P","addr":"5225 Thelin St"},"geometry":{"type":"Point","coordinates":[-97.3314,32.66912]}},{"type":"Feature","properties":{"name":"UPS Supply Chain Solutions","addr":"13501 Independence Pky"},"geometry":{"type":"Point","coordinates":[-97.25095,32.97216]}},{"type":"Feature","properties":{"name":"Trinity Broadcasting of Texas","addr":"5501 Alliance Gateway Fwy"},"geometry":{"type":"Point","coordinates":[-97.24629,32.98617]}},{"type":"Feature","properties":{"name":"Structural and Steel Products, Inc.","addr":"3001 W Pafford St"},"geometry":{"type":"Point","coordinates":[-97.36049,32.69215]}},{"type":"Feature","properties":{"name":"City of Fort Worth Planning and Development","addr":"200 Texas St"},"geometry":{"type":"Point","coordinates":[-97.33031,32.74839]}},{"type":"Feature","properties":{"name":"Tandy Leather Factory, Inc.","addr":"1900 SE Loop 820"},"geometry":{"type":"Point","coordinates":[-97.30207,32.66878]}},{"type":"Feature","properties":{"name":"CTI Foods","addr":"504 Sansom Blvd"},"geometry":{"type":"Point","coordinates":[-97.3543,32.85757]}},{"type":"Feature","properties":{"name":"Co-Operative Industries Aerospace & Defense","addr":"1401 S Cherry Ln"},"geometry":{"type":"Point","coordinates":[-97.45168,32.74533]}},{"type":"Feature","properties":{"name":"United States Postal Service","addr":"251 W Lancaster Ave"},"geometry":{"type":"Point","coordinates":[-97.3286,32.74657]}},{"type":"Feature","properties":{"name":"Trinity Springs Middle School","addr":"3550 KELLER HICKS Rd"},"geometry":{"type":"Point","coordinates":[-97.28598,32.93887]}},{"type":"Feature","properties":{"name":"Bluff Manufacturing Inc","addr":"651 N Burleson Blvd"},"geometry":{"type":"Point","coordinates":[-97.31938,32.55537]}},{"type":"Feature","properties":{"name":"Coast Southwest","addr":"5215 Bear Creek Ct"},"geometry":{"type":"Point","coordinates":[-97.02589,32.81944]}},{"type":"Feature","properties":{"name":"Galderma","addr":"14600 Heritage Pky"},"geometry":{"type":"Point","coordinates":[-97.30073,32.9961]}},{"type":"Feature","properties":{"name":"Eastern Hills High School","addr":"5701 Shelton St"},"geometry":{"type":"Point","coordinates":[-97.23349,32.74756]}},{"type":"Feature","properties":{"name":"Mother Parkers Tea & Coffee Inc.","addr":"7800 Will Rogers Blvd"},"geometry":{"type":"Point","coordinates":[-97.31311,32.63467]}},{"type":"Feature","properties":{"name":"All Points of Texas","addr":"701 Eight Twenty Blvd"},"geometry":{"type":"Point","coordinates":[-97.34763,32.83315]}},{"type":"Feature","properties":{"name":"Leaman Container","addr":"5701 E Rosedale St"},"geometry":{"type":"Point","coordinates":[-97.23273,32.72989]}},{"type":"Feature","properties":{"name":"Aero-Glen International","addr":"13751 Independence Pky"},"geometry":{"type":"Point","coordinates":[-97.25127,32.9803]}},{"type":"Feature","properties":{"name":"Ritchie Brothers Auctioneers","addr":"6050 Azle Ave"},"geometry":{"type":"Point","coordinates":[-97.4219,32.81577]}},{"type":"Feature","properties":{"name":"DriveTime","addr":"15001 Trinity Blvd"},"geometry":{"type":"Point","coordinates":[-97.04137,32.82196]}},{"type":"Feature","properties":{"name":"Smith & Nephew","addr":"4900 W Vickery Blvd"},"geometry":{"type":"Point","coordinates":[-97.39451,32.7168]}},{"type":"Feature","properties":{"name":"Aytu BioScience","addr":"2940 N State Highway 360"},"geometry":{"type":"Point","coordinates":[-97.05362,32.8034]}},{"type":"Feature","properties":{"name":"U-Haul","addr":"3019 Altamesa Blvd"},"geometry":{"type":"Point","coordinates":[-97.36086,32.64892]}},{"type":"Feature","properties":{"name":"Tarrant County College","addr":"5901 Fitzhugh Ave"},"geometry":{"type":"Point","coordinates":[-97.22892,32.71782]}},{"type":"Feature","properties":{"name":"Texas Workforce Commission","addr":"301 W 13th St"},"geometry":{"type":"Point","coordinates":[-97.3312,32.74782]}},{"type":"Feature","properties":{"name":"Medtronic","addr":"4600-4620 N Beach St"},"geometry":{"type":"Point","coordinates":[-97.29026,32.82491]}},{"type":"Feature","properties":{"name":"Central Parking System","addr":"701 Houston St"},"geometry":{"type":"Point","coordinates":[-97.33095,32.75283]}},{"type":"Feature","properties":{"name":"Alsco","addr":"1340 Berry St E"},"geometry":{"type":"Point","coordinates":[-97.3095,32.70577]}},{"type":"Feature","properties":{"name":"Southwest Christian School Inc","addr":"6801 Dan Danciger Rd"},"geometry":{"type":"Point","coordinates":[-97.40719,32.649]}},{"type":"Feature","properties":{"name":"Tarrant County","addr":"3333 Quorum Dr"},"geometry":{"type":"Point","coordinates":[-97.30015,32.83084]}},{"type":"Feature","properties":{"name":"U-Haul Moving & Storage Of S Fort Worth-Altamesa","addr":"3450 Altamesa Blvd"},"geometry":{"type":"Point","coordinates":[-97.36571,32.64984]}},{"type":"Feature","properties":{"name":"U-Haul","addr":"6297 Mesa Butte Ct"},"geometry":{"type":"Point","coordinates":[-97.24088,33.01535]}},{"type":"Feature","properties":{"name":"Alcon Laboratories, Inc.","addr":"6801 Will Rogers Blvd"},"geometry":{"type":"Point","coordinates":[-97.31274,32.64723]}},{"type":"Feature","properties":{"name":"St Matthew Cumberland Presbyterian Church","addr":"380 NW Tarrant Ave"},"geometry":{"type":"Point","coordinates":[-97.33237,32.5459]}},{"type":"Feature","properties":{"name":"Parker Hannifin","addr":"4700 Lone Star Blvd"},"geometry":{"type":"Point","coordinates":[-97.32985,32.82613]}},{"type":"Feature","properties":{"name":"Hicksfield Sports Arena","addr":"10361 Hicks Field Rd"},"geometry":{"type":"Point","coordinates":[-97.39998,32.91813]}},{"type":"Feature","properties":{"name":"Kimbell Art Foundation","addr":"3333 Camp Bowie Blvd"},"geometry":{"type":"Point","coordinates":[-97.36502,32.74962]}},{"type":"Feature","properties":{"name":"Bruckner's Truck Sales","addr":"1200 NE Loop 820"},"geometry":{"type":"Point","coordinates":[-97.33822,32.84164]}},{"type":"Feature","properties":{"name":"Custom Truck One Source","addr":"7200 Jack Newell Blvd S"},"geometry":{"type":"Point","coordinates":[-97.2242,32.78479]}},{"type":"Feature","properties":{"name":"The Playhouse Academy","addr":"4900 Briarhaven Rd"},"geometry":{"type":"Point","coordinates":[-97.39438,32.68837]}},{"type":"Feature","properties":{"name":"Cornerstone Assistance Network","addr":"3500 Noble Ave"},"geometry":{"type":"Point","coordinates":[-97.29828,32.7695]}},{"type":"Feature","properties":{"name":"SPM Oil & Gas","addr":"7711 Wyatt Dr"},"geometry":{"type":"Point","coordinates":[-97.44859,32.75677]}},{"type":"Feature","properties":{"name":"Life.Church","addr":"5400 W Risinger Rd"},"geometry":{"type":"Point","coordinates":[-97.40652,32.61561]}},{"type":"Feature","properties":{"name":"Fort Worth First Church Nazarene","addr":"2001 E Main St"},"geometry":{"type":"Point","coordinates":[-97.33559,32.57772]}},{"type":"Feature","properties":{"name":"ColorCoat, Inc.","addr":"2740-2760 Regency Dr"},"geometry":{"type":"Point","coordinates":[-97.05335,32.79772]}},{"type":"Feature","properties":{"name":"Painless Performance Products, LLC","addr":"2501 Ludelle St"},"geometry":{"type":"Point","coordinates":[-97.29144,32.74183]}},{"type":"Feature","properties":{"name":"NT Event Center, LLC","addr":"100 E Midway Dr"},"geometry":{"type":"Point","coordinates":[-97.08265,32.84408]}},{"type":"Feature","properties":{"name":"Basden Steel Corporation","addr":"645 E Renfro St"},"geometry":{"type":"Point","coordinates":[-97.30623,32.5391]}},{"type":"Feature","properties":{"name":"Industrial Power Truck & Equipment","addr":"712 N Beach St"},"geometry":{"type":"Point","coordinates":[-97.28734,32.7728]}},{"type":"Feature","properties":{"name":"CommScope","addr":"11312 Pipeline Rd S"},"geometry":{"type":"Point","coordinates":[-97.12468,32.81461]}},{"type":"Feature","properties":{"name":"Old Air Products Inc","addr":"1201 Forum Way S"},"geometry":{"type":"Point","coordinates":[-97.31118,32.62186]}},{"type":"Feature","properties":{"name":"Trinity Metal Products, Inc.","addr":"3501 House Anderson Rd"},"geometry":{"type":"Point","coordinates":[-97.12296,32.81082]}},{"type":"Feature","properties":{"name":"High Point Academy","addr":"1256 N Jim Wright Fwy"},"geometry":{"type":"Point","coordinates":[-97.46871,32.7808]}},{"type":"Feature","properties":{"name":"TTI","addr":"5050 Mark IV Pky"},"geometry":{"type":"Point","coordinates":[-97.32096,32.83434]}},{"type":"Feature","properties":{"name":"National Utilities Co./NUCO","addr":"1700 Hickory Dr"},"geometry":{"type":"Point","coordinates":[-97.26499,32.78393]}},{"type":"Feature","properties":{"name":"Epic Helicopters","addr":"4121 Lincoln Ave"},"geometry":{"type":"Point","coordinates":[-97.36308,32.81432]}},{"type":"Feature","properties":{"name":"Powdertek Inc","addr":"4316-4322 Clay Ave"},"geometry":{"type":"Point","coordinates":[-97.28126,32.82909]}},{"type":"Feature","properties":{"name":"Southwest Office Systems","addr":"13960 Trinity Blvd"},"geometry":{"type":"Point","coordinates":[-97.06407,32.82215]}},{"type":"Feature","properties":{"name":"Wrangler Concrete Construction","addr":"200 McAlister Rd"},"geometry":{"type":"Point","coordinates":[-97.34073,32.55999]}},{"type":"Feature","properties":{"name":"Inspirus","addr":"100 Rupert St"},"geometry":{"type":"Point","coordinates":[-97.34912,32.75813]}},{"type":"Feature","properties":{"name":"Allied Pilots Association","addr":"14600 Trinity Blvd"},"geometry":{"type":"Point","coordinates":[-97.05119,32.82202]}},{"type":"Feature","properties":{"name":"Sterling Paper Converting","addr":"1200 S Sylvania Ave"},"geometry":{"type":"Point","coordinates":[-97.30882,32.75591]}},{"type":"Feature","properties":{"name":"Craddock Moving & Storage","addr":"2841 Cullen St"},"geometry":{"type":"Point","coordinates":[-97.35745,32.76169]}},{"type":"Feature","properties":{"name":"Zims Autotechnik","addr":"1804 Reliance Pky"},"geometry":{"type":"Point","coordinates":[-97.10786,32.83825]}},{"type":"Feature","properties":{"name":"HCA","addr":"4160 International Plz"},"geometry":{"type":"Point","coordinates":[-97.40055,32.68628]}},{"type":"Feature","properties":{"name":"Armscoat Custom Finishes","addr":"3588-3604 Golden Triangle Blvd"},"geometry":{"type":"Point","coordinates":[-97.30482,32.93235]}},{"type":"Feature","properties":{"name":"Smith Wood Products, Ltd.","addr":"4220 Clay Ave"},"geometry":{"type":"Point","coordinates":[-97.28398,32.8291]}},{"type":"Feature","properties":{"name":"Trinity Chapel Bible Church","addr":"6610 Southwest Blvd"},"geometry":{"type":"Point","coordinates":[-97.42197,32.69472]}},{"type":"Feature","properties":{"name":"Trinity Self Storage","addr":"3255 Keller Hicks Rd"},"geometry":{"type":"Point","coordinates":[-97.29012,32.93902]}},{"type":"Feature","properties":{"name":"ACS Hydraulics","addr":"1101 Stanley Dr"},"geometry":{"type":"Point","coordinates":[-97.10888,32.82286]}},{"type":"Feature","properties":{"name":"Blend Supply","addr":"3200-3262 Chapel Creek Blvd"},"geometry":{"type":"Point","coordinates":[-97.50385,32.72698]}},{"type":"Feature","properties":{"name":"Aadfw Inc","addr":"1350 Westpark Way"},"geometry":{"type":"Point","coordinates":[-97.12264,32.81858]}},{"type":"Feature","properties":{"name":"ADT Inc.","addr":"14500 Trinity Blvd"},"geometry":{"type":"Point","coordinates":[-97.05305,32.82206]}},{"type":"Feature","properties":{"name":"Earl R. Waddell and Sons","addr":"3601 E Vickery Blvd"},"geometry":{"type":"Point","coordinates":[-97.27285,32.73323]}},{"type":"Feature","properties":{"name":"Star Industries","addr":"4101 Garland Dr"},"geometry":{"type":"Point","coordinates":[-97.28524,32.83046]}},{"type":"Feature","properties":{"name":"Martin Marietta","addr":"3600 Lawnwood St"},"geometry":{"type":"Point","coordinates":[-97.29631,32.76117]}},{"type":"Feature","properties":{"name":"Agh Industries Inc","addr":"1103 Stanley Dr"},"geometry":{"type":"Point","coordinates":[-97.10888,32.82283]}},{"type":"Feature","properties":{"name":"Hills Church","addr":"8300 West Fwy"},"geometry":{"type":"Point","coordinates":[-97.46238,32.73859]}},{"type":"Feature","properties":{"name":"Cole Construction","addr":"10315 Alta Vista Rd"},"geometry":{"type":"Point","coordinates":[-97.28161,32.92485]}},{"type":"Feature","properties":{"name":"House of Frames","addr":"9725 South Fwy"},"geometry":{"type":"Point","coordinates":[-97.32111,32.6133]}},{"type":"Feature","properties":{"name":"MasTec Network Solutions","addr":"4351 Dale Earnhardt Way"},"geometry":{"type":"Point","coordinates":[-97.25415,33.02631]}},{"type":"Feature","properties":{"name":"Alpha Oil Tools","addr":"3044 Wichita Ct"},"geometry":{"type":"Point","coordinates":[-97.28713,32.65828]}},{"type":"Feature","properties":{"name":"Dialog Direct","addr":"4201-4333 Cambridge Rd"},"geometry":{"type":"Point","coordinates":[-97.0442,32.8261]}},{"type":"Feature","properties":{"name":"Davis Machine and Manufacturing","addr":"1503 Royal Pky"},"geometry":{"type":"Point","coordinates":[-97.11926,32.81757]}},{"type":"Feature","properties":{"name":"Communication Concepts","addr":"4216 Hahn Blvd"},"geometry":{"type":"Point","coordinates":[-97.28321,32.82657]}},{"type":"Feature","properties":{"name":"Aaron Pest Control","addr":"2301 Higgins Ln"},"geometry":{"type":"Point","coordinates":[-97.28554,32.79312]}},{"type":"Feature","properties":{"name":"Classic Foods","addr":"629 Mony St W"},"geometry":{"type":"Point","coordinates":[-97.32196,32.76811]}},{"type":"Feature","properties":{"name":"Fleetpride","addr":"1120 Blue Mound Rd"},"geometry":{"type":"Point","coordinates":[-97.34316,32.84747]}},{"type":"Feature","properties":{"name":"Action Gypsum Supply","addr":"1120 Blue Mound Rd"},"geometry":{"type":"Point","coordinates":[-97.34316,32.84747]}},{"type":"Feature","properties":{"name":"Vending Concepts","addr":"1001 Miller Ave"},"geometry":{"type":"Point","coordinates":[-97.26187,32.73419]}},{"type":"Feature","properties":{"name":"True Grit Liners","addr":"5045 David Strickland Rd"},"geometry":{"type":"Point","coordinates":[-97.24742,32.68176]}},{"type":"Feature","properties":{"name":"Tech-Tool Plastics, Inc.","addr":"7800 Skyline Park Dr"},"geometry":{"type":"Point","coordinates":[-97.44844,32.75512]}},{"type":"Feature","properties":{"name":"Herring Tank Company Inc","addr":"7201 W Vickery Blvd"},"geometry":{"type":"Point","coordinates":[-97.44037,32.69934]}},{"type":"Feature","properties":{"name":"Qualbe Marketing Group","addr":"5535 Airport Fwy"},"geometry":{"type":"Point","coordinates":[-97.26657,32.78551]}},{"type":"Feature","properties":{"name":"Discount Gamerooms & Theatre","addr":"5144 SE Loop 820"},"geometry":{"type":"Point","coordinates":[-97.2465,32.66152]}},{"type":"Feature","properties":{"name":"Jipson Supply","addr":"4851 Blue Mound Rd"},"geometry":{"type":"Point","coordinates":[-97.34293,32.82879]}},{"type":"Feature","properties":{"name":"Vogt RV Centers USA","addr":"5301 Airport Fwy"},"geometry":{"type":"Point","coordinates":[-97.2691,32.78433]}},{"type":"Feature","properties":{"name":"Public Storage","addr":"2400 S Riverside Dr"},"geometry":{"type":"Point","coordinates":[-97.30439,32.71812]}},{"type":"Feature","properties":{"name":"Collective Outdoors","addr":"6210 South Fwy"},"geometry":{"type":"Point","coordinates":[-97.32174,32.65653]}},{"type":"Feature","properties":{"name":"Probe Technology Services, Inc.","addr":"1132 Everman Pky"},"geometry":{"type":"Point","coordinates":[-97.31254,32.62736]}},{"type":"Feature","properties":{"name":"Southwest Hydraulics","addr":"2425 Thomas Rd"},"geometry":{"type":"Point","coordinates":[-97.26217,32.79531]}},{"type":"Feature","properties":{"name":"Graphics2","addr":"507 S Main St"},"geometry":{"type":"Point","coordinates":[-97.32581,32.73919]}},{"type":"Feature","properties":{"name":"Industrial Refactory","addr":"2300 Main St S"},"geometry":{"type":"Point","coordinates":[-97.32644,32.71838]}},{"type":"Feature","properties":{"name":"VOGT RV CENTERS USA","addr":"5624 Airport Fwy"},"geometry":{"type":"Point","coordinates":[-97.2658,32.78493]}},{"type":"Feature","properties":{"name":"Omnicare, Inc.","addr":"14450 Trinity Blvd"},"geometry":{"type":"Point","coordinates":[-97.0538,32.82208]}},{"type":"Feature","properties":{"name":"Assemblies of God","addr":"2900 Lancaster Ave W"},"geometry":{"type":"Point","coordinates":[-97.35859,32.74739]}},{"type":"Feature","properties":{"name":"Volvo Trucks North America, Inc.","addr":"4690 Diplomacy Rd"},"geometry":{"type":"Point","coordinates":[-97.03752,32.83241]}},{"type":"Feature","properties":{"name":"Diamond Floor Company","addr":"5505 Airport Fwy"},"geometry":{"type":"Point","coordinates":[-97.26689,32.78535]}},{"type":"Feature","properties":{"name":"Steele & Freeman, Inc","addr":"1301 Lawson Rd"},"geometry":{"type":"Point","coordinates":[-97.34613,32.84616]}},{"type":"Feature","properties":{"name":"Fleet & Facility Operations","addr":"1314 Royal Pky"},"geometry":{"type":"Point","coordinates":[-97.11895,32.8189]}},{"type":"Feature","properties":{"name":"Fortifoam Inc","addr":"6001 Tension Dr"},"geometry":{"type":"Point","coordinates":[-97.22784,32.73384]}},{"type":"Feature","properties":{"name":"Access Overhead Door","addr":"4555 Forest Hill Cir"},"geometry":{"type":"Point","coordinates":[-97.25696,32.66021]}},{"type":"Feature","properties":{"name":"Mitchell Motor Co","addr":"312 NW 28th St"},"geometry":{"type":"Point","coordinates":[-97.35168,32.79534]}},{"type":"Feature","properties":{"name":"Lone Star Van Lines Inc","addr":"4015 E Loop 820 S"},"geometry":{"type":"Point","coordinates":[-97.23357,32.7032]}},{"type":"Feature","properties":{"name":"Smith Pump Co","addr":"4624 Martin Luther King Fwy"},"geometry":{"type":"Point","coordinates":[-97.25473,32.69491]}},{"type":"Feature","properties":{"name":"Friendly Fellowship Church Of God In Christ","addr":"2909 Horton Rd"},"geometry":{"type":"Point","coordinates":[-97.28934,32.6866]}},{"type":"Feature","properties":{"name":"Sicpa Securink Corp","addr":"4041-4049 Meacham Blvd"},"geometry":{"type":"Point","coordinates":[-97.28763,32.82426]}},{"type":"Feature","properties":{"name":"Saddleback Leather Company","addr":"105 Speer St"},"geometry":{"type":"Point","coordinates":[-97.54805,32.89864]}},{"type":"Feature","properties":{"name":"Franklin Insulation","addr":"201 26th St NW"},"geometry":{"type":"Point","coordinates":[-97.35049,32.79168]}},{"type":"Feature","properties":{"name":"Herzog","addr":"14450 Trinity Blvd"},"geometry":{"type":"Point","coordinates":[-97.0538,32.82208]}},{"type":"Feature","properties":{"name":"Window Nation","addr":"2940 N State Highway 360"},"geometry":{"type":"Point","coordinates":[-97.05362,32.8034]}},{"type":"Feature","properties":{"name":"Southwest Roofing","addr":"3700 Reagan Dr"},"geometry":{"type":"Point","coordinates":[-97.44779,32.71849]}},{"type":"Feature","properties":{"name":"City Electric Supply","addr":"201 N Beach St"},"geometry":{"type":"Point","coordinates":[-97.28772,32.76615]}},{"type":"Feature","properties":{"name":"Crown Collision Eagle Mountain","addr":"6400 Boat Club Rd"},"geometry":{"type":"Point","coordinates":[-97.4263,32.84871]}},{"type":"Feature","properties":{"name":"Thompson's Harveson & Cole Funeral Home","addr":"4350 River Oaks Blvd"},"geometry":{"type":"Point","coordinates":[-97.38506,32.78462]}},{"type":"Feature","properties":{"name":"Airgas","addr":"801 Northside Dr E"},"geometry":{"type":"Point","coordinates":[-97.33956,32.77829]}},{"type":"Feature","properties":{"name":"Inland Truck Parts & Service","addr":"3409 Kelli Ct"},"geometry":{"type":"Point","coordinates":[-97.31802,32.80653]}},{"type":"Feature","properties":{"name":"Real Family Fellowship","addr":"202 Pearson Ln"},"geometry":{"type":"Point","coordinates":[-97.57824,32.9103]}},{"type":"Feature","properties":{"name":"Sunshine Custom Cabinets Inc","addr":"5212 Saunders Rd"},"geometry":{"type":"Point","coordinates":[-97.24404,32.67657]}},{"type":"Feature","properties":{"name":"Texas Poly Inc","addr":"1375 Westpark Way"},"geometry":{"type":"Point","coordinates":[-97.12251,32.81901]}},{"type":"Feature","properties":{"name":"Global Signs","addr":"5105 E California Pky"},"geometry":{"type":"Point","coordinates":[-97.24919,32.66189]}},{"type":"Feature","properties":{"name":"Schaefer Mold Inc","addr":"2350-2368 Blue Smoke Ct N"},"geometry":{"type":"Point","coordinates":[-97.29493,32.74173]}},{"type":"Feature","properties":{"name":"Semi-conductor Equipment Service","addr":"133 Loy St"},"geometry":{"type":"Point","coordinates":[-97.30794,32.54146]}},{"type":"Feature","properties":{"name":"Martin Transportation Llc","addr":"3485 Roy Orr Blvd"},"geometry":{"type":"Point","coordinates":[-97.03029,32.81464]}},{"type":"Feature","properties":{"name":"Safety Seal Piston Ring Company","addr":"10736 Pipeline Rd S"},"geometry":{"type":"Point","coordinates":[-97.13757,32.81467]}},{"type":"Feature","properties":{"name":"Fort Worth Gear & Axle","addr":"3409 Kelli Ct"},"geometry":{"type":"Point","coordinates":[-97.31802,32.80653]}},{"type":"Feature","properties":{"name":"XPlor Preschool & Daycare","addr":"13900 Sendera Ranch Blvd"},"geometry":{"type":"Point","coordinates":[-97.38233,32.98363]}},{"type":"Feature","properties":{"name":"The Music Bed","addr":"9555 Harmon Rd"},"geometry":{"type":"Point","coordinates":[-97.33162,32.91298]}},{"type":"Feature","properties":{"name":"MARTINEZ DENTALCRAFT EQUIP. INC.","addr":"3408-3424 S Jones St"},"geometry":{"type":"Point","coordinates":[-97.32336,32.69995]}},{"type":"Feature","properties":{"name":"Saladmaster","addr":"4300 Amon Carter Blvd"},"geometry":{"type":"Point","coordinates":[-97.04892,32.82562]}},{"type":"Feature","properties":{"name":"Iglesia Bautista Central Fort","addr":"2838 W 6th St"},"geometry":{"type":"Point","coordinates":[-97.35722,32.75218]}},{"type":"Feature","properties":{"name":"Ray & Hamil Inc","addr":"3855 South Fwy"},"geometry":{"type":"Point","coordinates":[-97.32019,32.69257]}},{"type":"Feature","properties":{"name":"Fats Speed & Custom","addr":"991 Haltom Rd"},"geometry":{"type":"Point","coordinates":[-97.27555,32.77667]}},{"type":"Feature","properties":{"name":"Goodwill","addr":"4005 Campus Dr"},"geometry":{"type":"Point","coordinates":[-97.29549,32.68788]}},{"type":"Feature","properties":{"name":"JPS Health Netork-Dental","addr":"1513 E Presidio St"},"geometry":{"type":"Point","coordinates":[-97.31323,32.74509]}},{"type":"Feature","properties":{"name":"G&M Automotive","addr":"541 N Main St"},"geometry":{"type":"Point","coordinates":[-97.33769,32.76405]}},{"type":"Feature","properties":{"name":"City of Fort Worth","addr":"541 N Main St"},"geometry":{"type":"Point","coordinates":[-97.33769,32.76405]}},{"type":"Feature","properties":{"name":"Texas MasterCraft","addr":"2161-2177 E Loop 820 N"},"geometry":{"type":"Point","coordinates":[-97.21334,32.78955]}},{"type":"Feature","properties":{"name":"Harley-Davidson","addr":"3000 W Loop 820 S"},"geometry":{"type":"Point","coordinates":[-97.48185,32.73099]}},{"type":"Feature","properties":{"name":"United Refrigeration Inc.","addr":"1300 Forum Way S"},"geometry":{"type":"Point","coordinates":[-97.30899,32.62169]}},{"type":"Feature","properties":{"name":"Micro Mold Plastics Inc","addr":"2302-2314 Ludelle St"},"geometry":{"type":"Point","coordinates":[-97.29283,32.74203]}},{"type":"Feature","properties":{"name":"Primerica","addr":"3501-3529 NW Loop 820"},"geometry":{"type":"Point","coordinates":[-97.39844,32.81984]}},{"type":"Feature","properties":{"name":"Mocap Partners","addr":"5535 Airport Fwy"},"geometry":{"type":"Point","coordinates":[-97.26657,32.78551]}},{"type":"Feature","properties":{"name":"Fort Worth Baptist Church","addr":"620 N Chandler Dr"},"geometry":{"type":"Point","coordinates":[-97.30295,32.772]}},{"type":"Feature","properties":{"name":"WhiteWater Express Car Wash","addr":"4784 Golden Triangle Blvd"},"geometry":{"type":"Point","coordinates":[-97.28251,32.93139]}},{"type":"Feature","properties":{"name":"Insituform Technologies","addr":"5000 Martin St"},"geometry":{"type":"Point","coordinates":[-97.24853,32.68893]}},{"type":"Feature","properties":{"name":"Comprobe LLC","addr":"9632 Crowley Rd"},"geometry":{"type":"Point","coordinates":[-97.34862,32.6176]}},{"type":"Feature","properties":{"name":"Landstar System, Inc.","addr":"4700 Diplomacy Rd"},"geometry":{"type":"Point","coordinates":[-97.03746,32.8325]}},{"type":"Feature","properties":{"name":"Jimenez Auto Sales & Service Center","addr":"4800 E Lancaster Ave"},"geometry":{"type":"Point","coordinates":[-97.2513,32.74072]}},{"type":"Feature","properties":{"name":"Eagle Contract Resources","addr":"1001-1005 Pamela Dr"},"geometry":{"type":"Point","coordinates":[-97.11018,32.82354]}},{"type":"Feature","properties":{"name":"Mid-cities Classics","addr":"10728 Pipeline Rd S"},"geometry":{"type":"Point","coordinates":[-97.13779,32.81467]}},{"type":"Feature","properties":{"name":"Ryder","addr":"4712 South Fwy"},"geometry":{"type":"Point","coordinates":[-97.32084,32.68166]}},{"type":"Feature","properties":{"name":"Alert  360","addr":"14500 Trinity Blvd"},"geometry":{"type":"Point","coordinates":[-97.05305,32.82206]}},{"type":"Feature","properties":{"name":"C.R. Kinsman & Associates, Inc.","addr":"1110 Pamela Dr"},"geometry":{"type":"Point","coordinates":[-97.11033,32.8222]}},{"type":"Feature","properties":{"name":"Technical Diagnostic Services, Inc.","addr":"15825 Trinity Blvd"},"geometry":{"type":"Point","coordinates":[-97.03652,32.81418]}},{"type":"Feature","properties":{"name":"Sunstate Equipment Co LLC","addr":"8000 S South Fwy"},"geometry":{"type":"Point","coordinates":[-97.32205,32.6335]}},{"type":"Feature","properties":{"name":"Teague Lumber Co","addr":"2501 White Settlement Rd"},"geometry":{"type":"Point","coordinates":[-97.351,32.75897]}},{"type":"Feature","properties":{"name":"American Automatic Sprinkler","addr":"600 De Costa St"},"geometry":{"type":"Point","coordinates":[-97.29055,32.75969]}},{"type":"Feature","properties":{"name":"Terex","addr":"1300 Sylvania Ct"},"geometry":{"type":"Point","coordinates":[-97.30893,32.75454]}},{"type":"Feature","properties":{"name":"United Parcel Service of America, Inc","addr":"5001 David Strickland Rd"},"geometry":{"type":"Point","coordinates":[-97.24829,32.68177]}},{"type":"Feature","properties":{"name":"True Auto Vehicle Breakdown Protection","addr":"801 W Cannon St"},"geometry":{"type":"Point","coordinates":[-97.33284,32.73729]}},{"type":"Feature","properties":{"name":"Childrens Lighthouse","addr":"4000 Cascade Sky Dr"},"geometry":{"type":"Point","coordinates":[-97.09322,32.79999]}},{"type":"Feature","properties":{"name":"Quickway Carriers, Inc","addr":"114 S Calhoun St"},"geometry":{"type":"Point","coordinates":[-97.32394,32.74335]}},{"type":"Feature","properties":{"name":"Alpha Specialty Contractors","addr":"3000 Wichita Ct"},"geometry":{"type":"Point","coordinates":[-97.28828,32.65883]}},{"type":"Feature","properties":{"name":"American Microsystems LTD, Inc.","addr":"2190 Regal Pky"},"geometry":{"type":"Point","coordinates":[-97.12077,32.81795]}},{"type":"Feature","properties":{"name":"Accurate Weld Inc","addr":"2736 St Louis Ave"},"geometry":{"type":"Point","coordinates":[-97.32779,32.71247]}},{"type":"Feature","properties":{"name":"Mason-Dallas, Inc.","addr":"2131 Regal Pky"},"geometry":{"type":"Point","coordinates":[-97.11983,32.81778]}},{"type":"Feature","properties":{"name":"Johnson Control Training","addr":"4400 Amon Carter Blvd"},"geometry":{"type":"Point","coordinates":[-97.0489,32.82731]}},{"type":"Feature","properties":{"name":"Layne Glass Service","addr":"1225 E Seminary Dr"},"geometry":{"type":"Point","coordinates":[-97.3104,32.6845]}},{"type":"Feature","properties":{"name":"CrossFit","addr":"2529 Weisenberger St"},"geometry":{"type":"Point","coordinates":[-97.35151,32.75707]}},{"type":"Feature","properties":{"name":"Cobler Sales & Service","addr":"2141 Regal Pky"},"geometry":{"type":"Point","coordinates":[-97.11999,32.8178]}},{"type":"Feature","properties":{"name":"Riley Plumbing & Mechanical","addr":"6704 Azle Ave"},"geometry":{"type":"Point","coordinates":[-97.435,32.81565]}},{"type":"Feature","properties":{"name":"Armellini Express Lines","addr":"4629 Diplomacy Rd"},"geometry":{"type":"Point","coordinates":[-97.03984,32.83059]}},{"type":"Feature","properties":{"name":"SPD Contractors, Inc.","addr":"1361 W Euless Blvd"},"geometry":{"type":"Point","coordinates":[-97.10486,32.82677]}},{"type":"Feature","properties":{"name":"Fastenal","addr":"1300 Forum Way S"},"geometry":{"type":"Point","coordinates":[-97.30899,32.62169]}},{"type":"Feature","properties":{"name":"Penske Truck Rental","addr":"2765 N Great Southwest Pky"},"geometry":{"type":"Point","coordinates":[-97.04661,32.79403]}},{"type":"Feature","properties":{"name":"Forged Fitness","addr":"309-321 Greenleaf St"},"geometry":{"type":"Point","coordinates":[-97.34782,32.75657]}},{"type":"Feature","properties":{"name":"Services Unlimited","addr":"5401 Hemphill St"},"geometry":{"type":"Point","coordinates":[-97.33177,32.6666]}},{"type":"Feature","properties":{"name":"Double Eagle Electric","addr":"2952-2982 SE Loop 820"},"geometry":{"type":"Point","coordinates":[-97.28611,32.66186]}},{"type":"Feature","properties":{"name":"Brumley Printing","addr":"820 N Main St"},"geometry":{"type":"Point","coordinates":[-97.34082,32.76915]}},{"type":"Feature","properties":{"name":"Vending Nut Company","addr":"2222 Montgomery St"},"geometry":{"type":"Point","coordinates":[-97.37005,32.73761]}},{"type":"Feature","properties":{"name":"PPG Paints","addr":"2601 Northern Cross Blvd"},"geometry":{"type":"Point","coordinates":[-97.3118,32.8353]}},{"type":"Feature","properties":{"name":"Champion Windows","addr":"2951 Northern Cross Blvd"},"geometry":{"type":"Point","coordinates":[-97.30762,32.83507]}},{"type":"Feature","properties":{"name":"WRHowell LLC","addr":"8900-8936 Oak Grove Rd"},"geometry":{"type":"Point","coordinates":[-97.30451,32.62443]}},{"type":"Feature","properties":{"name":"K&L Clutch & Transmission","addr":"3529 Raider Dr"},"geometry":{"type":"Point","coordinates":[-97.13481,32.81215]}},{"type":"Feature","properties":{"name":"Phalanx MMA Academy","addr":"3001-3003 Shamrock St"},"geometry":{"type":"Point","coordinates":[-97.3598,32.76306]}},{"type":"Feature","properties":{"name":"Webb Air Conditioning Heating","addr":"115 S Riverside Dr"},"geometry":{"type":"Point","coordinates":[-97.30286,32.74368]}},{"type":"Feature","properties":{"name":"Modern Tektronix Assembly","addr":"1101-1111 Pamela Dr"},"geometry":{"type":"Point","coordinates":[-97.11019,32.82219]}},{"type":"Feature","properties":{"name":"C&s Propeller","addr":"8717 Forum Way"},"geometry":{"type":"Point","coordinates":[-97.31119,32.62701]}},{"type":"Feature","properties":{"name":"Western Hauler Enterprises, Inc.","addr":"2420 White Settlement Rd"},"geometry":{"type":"Point","coordinates":[-97.34974,32.75907]}},{"type":"Feature","properties":{"name":"Spark Power","addr":"4690 Diplomacy Rd"},"geometry":{"type":"Point","coordinates":[-97.03752,32.83241]}},{"type":"Feature","properties":{"name":"Accurate Foundation Repair","addr":"5001 Sun Valley Dr"},"geometry":{"type":"Point","coordinates":[-97.2483,32.67924]}},{"type":"Feature","properties":{"name":"Jar-Tex Industries","addr":"204 E Daggett Ave"},"geometry":{"type":"Point","coordinates":[-97.32492,32.74245]}},{"type":"Feature","properties":{"name":"AP Rentals","addr":"2161 Regal Pky"},"geometry":{"type":"Point","coordinates":[-97.1203,32.81782]}},{"type":"Feature","properties":{"name":"Metrocare Home Medical Equipment","addr":"1340 Post & Paddock Rd"},"geometry":{"type":"Point","coordinates":[-97.04344,32.79326]}},{"type":"Feature","properties":{"name":"San Miguel Lutheran Church","addr":"4301 E Lancaster Ave"},"geometry":{"type":"Point","coordinates":[-97.25974,32.74103]}},{"type":"Feature","properties":{"name":"South Star JCB","addr":"4851 Blue Mound Rd"},"geometry":{"type":"Point","coordinates":[-97.34293,32.82879]}},{"type":"Feature","properties":{"name":"Convey Inc","addr":"1000 Pamela Dr"},"geometry":{"type":"Point","coordinates":[-97.11032,32.82359]}},{"type":"Feature","properties":{"name":"Vital Signs and Graphics","addr":"2715-2785 Altamesa Blvd"},"geometry":{"type":"Point","coordinates":[-97.35866,32.64868]}},{"type":"Feature","properties":{"name":"Panasonic Avionics Corporation","addr":"14500 Trinity Blvd"},"geometry":{"type":"Point","coordinates":[-97.05305,32.82206]}},{"type":"Feature","properties":{"name":"Bill Coupland Trucking","addr":"2924 Hill Ave"},"geometry":{"type":"Point","coordinates":[-97.44492,32.73232]}},{"type":"Feature","properties":{"name":"H & E Movers","addr":"3329-3333 May St"},"geometry":{"type":"Point","coordinates":[-97.32843,32.70164]}},{"type":"Feature","properties":{"name":"Berea Bible Fellowship","addr":"6201 Hartman Rd"},"geometry":{"type":"Point","coordinates":[-97.2597,32.66889]}},{"type":"Feature","properties":{"name":"Volvo Group North America, LLC","addr":"1360 Post & Paddock Rd"},"geometry":{"type":"Point","coordinates":[-97.04293,32.79326]}},{"type":"Feature","properties":{"name":"Medica Rents Co","addr":"2831 Bledsoe St"},"geometry":{"type":"Point","coordinates":[-97.3571,32.74824]}},{"type":"Feature","properties":{"name":"Fast Trak Construction Inc","addr":"14500 Trinity Blvd"},"geometry":{"type":"Point","coordinates":[-97.05305,32.82206]}},{"type":"Feature","properties":{"name":"Sector 5 Digital","addr":"4300 Amon Carter Blvd"},"geometry":{"type":"Point","coordinates":[-97.04892,32.82562]}},{"type":"Feature","properties":{"name":"Greater Fort Worth Association of REALTORS, Inc.","addr":"2650 Parkview Dr"},"geometry":{"type":"Point","coordinates":[-97.35805,32.73657]}},{"type":"Feature","properties":{"name":"Century Mechanical Contractors, Inc.","addr":"3008 Wichita Ct"},"geometry":{"type":"Point","coordinates":[-97.28808,32.65873]}},{"type":"Feature","properties":{"name":"Royal Oil Co","addr":"917 N Main St"},"geometry":{"type":"Point","coordinates":[-97.34188,32.77032]}},{"type":"Feature","properties":{"name":"Coburn's Catering Service Inc","addr":"801 N Main St"},"geometry":{"type":"Point","coordinates":[-97.34065,32.76849]}},{"type":"Feature","properties":{"name":"Bucks Cabaret","addr":"2345 Meacham Blvd"},"geometry":{"type":"Point","coordinates":[-97.3236,32.8246]}},{"type":"Feature","properties":{"name":"Apria Healthcare","addr":"8900-8936 Oak Grove Rd"},"geometry":{"type":"Point","coordinates":[-97.30451,32.62443]}},{"type":"Feature","properties":{"name":"All Fair Electric","addr":"3340 N Beach St"},"geometry":{"type":"Point","coordinates":[-97.29043,32.80427]}},{"type":"Feature","properties":{"name":"Galactic NDT Svc","addr":"10728 Pipeline Rd S"},"geometry":{"type":"Point","coordinates":[-97.13779,32.81467]}},{"type":"Feature","properties":{"name":"Ellis Precision","addr":"3133 Ramona Dr"},"geometry":{"type":"Point","coordinates":[-97.44486,32.72779]}},{"type":"Feature","properties":{"name":"High Rise Systems Inc","addr":"3313 May St"},"geometry":{"type":"Point","coordinates":[-97.32843,32.70198]}},{"type":"Feature","properties":{"name":"Aquamaid Pool Techs","addr":"4615 Martin St"},"geometry":{"type":"Point","coordinates":[-97.25544,32.69214]}},{"type":"Feature","properties":{"name":"Hopkins Co Wholesale Florist","addr":"2000 15th Ave"},"geometry":{"type":"Point","coordinates":[-97.35093,32.74044]}},{"type":"Feature","properties":{"name":"Pro Logistix","addr":"1340 Post & Paddock Rd"},"geometry":{"type":"Point","coordinates":[-97.04344,32.79326]}},{"type":"Feature","properties":{"name":"Floor N More","addr":"4909 Airport Fwy"},"geometry":{"type":"Point","coordinates":[-97.27801,32.78008]}},{"type":"Feature","properties":{"name":"5 Star Welding","addr":"2737 S Bryan Ave"},"geometry":{"type":"Point","coordinates":[-97.32519,32.7124]}},{"type":"Feature","properties":{"name":"Smith Drywall, I Ltd","addr":"1029 W Enon Ave"},"geometry":{"type":"Point","coordinates":[-97.29557,32.63098]}},{"type":"Feature","properties":{"name":"Texas Alloys & Tool Company","addr":"4609 Fairlane Ave"},"geometry":{"type":"Point","coordinates":[-97.25557,32.69381]}},{"type":"Feature","properties":{"name":"Miller Image Tech","addr":"3240 S Jones St"},"geometry":{"type":"Point","coordinates":[-97.32336,32.7033]}},{"type":"Feature","properties":{"name":"Sempco Surveying Inc","addr":"3204-3208 S Main St"},"geometry":{"type":"Point","coordinates":[-97.32647,32.70387]}},{"type":"Feature","properties":{"name":"Ymca","addr":"2701 Moresby St"},"geometry":{"type":"Point","coordinates":[-97.28868,32.70784]}},{"type":"Feature","properties":{"name":"Ymca","addr":"1500 Sandy Ln"},"geometry":{"type":"Point","coordinates":[-97.19859,32.75739]}},{"type":"Feature","properties":{"name":"Bane Machinery","addr":"10505 N North Fwy"},"geometry":{"type":"Point","coordinates":[-97.31743,32.9284]}},{"type":"Feature","properties":{"name":"Bodyguard Paintless Dent Repair","addr":"2100 N State Highway 360"},"geometry":{"type":"Point","coordinates":[-97.0587,32.78539]}},{"type":"Feature","properties":{"name":"Marcuse & Sons, Inc.","addr":"3501 N Main St"},"geometry":{"type":"Point","coordinates":[-97.35154,32.80837]}},{"type":"Feature","properties":{"name":"Salon Supply","addr":"2512 Hemphill St"},"geometry":{"type":"Point","coordinates":[-97.33167,32.7155]}},{"type":"Feature","properties":{"name":"Horizon Tech Industries, Inc.","addr":"2401 Ludelle St"},"geometry":{"type":"Point","coordinates":[-97.29218,32.742]}},{"type":"Feature","properties":{"name":"Geo Shack","addr":"1200 Riverside Dr"},"geometry":{"type":"Point","coordinates":[-97.30249,32.75594]}},{"type":"Feature","properties":{"name":"FC 360","addr":"3048-3070 SE Loop 820"},"geometry":{"type":"Point","coordinates":[-97.28415,32.66126]}},{"type":"Feature","properties":{"name":"Legacy Merch","addr":"3048-3070 SE Loop 820"},"geometry":{"type":"Point","coordinates":[-97.28415,32.66126]}},{"type":"Feature","properties":{"name":"O.B. Macaroni","addr":"3048-3070 SE Loop 820"},"geometry":{"type":"Point","coordinates":[-97.28415,32.66126]}},{"type":"Feature","properties":{"name":"Careflite","addr":"1820 Reliance Pky"},"geometry":{"type":"Point","coordinates":[-97.10787,32.83869]}},{"type":"Feature","properties":{"name":"Mr. Lock","addr":"1820 Reliance Pky"},"geometry":{"type":"Point","coordinates":[-97.10787,32.83869]}},{"type":"Feature","properties":{"name":"Chem Can Svc","addr":"3032 Wichita Ct"},"geometry":{"type":"Point","coordinates":[-97.28749,32.65845]}},{"type":"Feature","properties":{"name":"Primera Iglesia Bautista","addr":"10150 Alta Vista Rd"},"geometry":{"type":"Point","coordinates":[-97.28488,32.9221]}},{"type":"Feature","properties":{"name":"Numotion","addr":"8900-8936 Oak Grove Rd"},"geometry":{"type":"Point","coordinates":[-97.30451,32.62443]}},{"type":"Feature","properties":{"name":"Gearheart Construction","addr":"3001 Cullen St"},"geometry":{"type":"Point","coordinates":[-97.35992,32.76196]}},{"type":"Feature","properties":{"name":"Salem Leasing Corporation","addr":"2558 NE 28th St"},"geometry":{"type":"Point","coordinates":[-97.31708,32.79513]}},{"type":"Feature","properties":{"name":"Glenco Roofing, Inc.","addr":"3136 S Main St"},"geometry":{"type":"Point","coordinates":[-97.32647,32.70495]}},{"type":"Feature","properties":{"name":"Pierce Decorative HDWR-Plumbing","addr":"4030 W Vickery Blvd"},"geometry":{"type":"Point","coordinates":[-97.37645,32.72764]}},{"type":"Feature","properties":{"name":"ABS Heating & Cooling","addr":"2509 W Waggoman St"},"geometry":{"type":"Point","coordinates":[-97.35418,32.69321]}},{"type":"Feature","properties":{"name":"Matt & Ann Kirkham","addr":"920 W Weatherford St"},"geometry":{"type":"Point","coordinates":[-97.33933,32.75407]}},{"type":"Feature","properties":{"name":"Advance Machine & Tool","addr":"3428 S Jones St"},"geometry":{"type":"Point","coordinates":[-97.32336,32.69988]}},{"type":"Feature","properties":{"name":"North Texas Assembly of God","addr":"2421 Cantrell Sansom Rd"},"geometry":{"type":"Point","coordinates":[-97.32628,32.84799]}},{"type":"Feature","properties":{"name":"AlphaGraphics","addr":"5836 Camp Bowie Blvd"},"geometry":{"type":"Point","coordinates":[-97.41048,32.73094]}},{"type":"Feature","properties":{"name":"Horizon General Contractors Inc","addr":"7315 Elizabeth Ln"},"geometry":{"type":"Point","coordinates":[-97.44248,32.72413]}},{"type":"Feature","properties":{"name":"Rub-a-Dub Car Wash","addr":"3300 NE 28th St"},"geometry":{"type":"Point","coordinates":[-97.29959,32.79507]}},{"type":"Feature","properties":{"name":"Alliant Technologies","addr":"14600 Trinity Blvd"},"geometry":{"type":"Point","coordinates":[-97.05119,32.82202]}},{"type":"Feature","properties":{"name":"Metro Pool Chemical, Inc.","addr":"451 Sansom Blvd"},"geometry":{"type":"Point","coordinates":[-97.35424,32.85681]}},{"type":"Feature","properties":{"name":"Bransom Floor Service Inc","addr":"917 Woodward St"},"geometry":{"type":"Point","coordinates":[-97.34294,32.76042]}},{"type":"Feature","properties":{"name":"1012 Ventures LLC","addr":"3333 Suffolk Dr"},"geometry":{"type":"Point","coordinates":[-97.36471,32.68737]}},{"type":"Feature","properties":{"name":"Carlton Int. Mfg. Co.","addr":"4104 Garland Dr"},"geometry":{"type":"Point","coordinates":[-97.28517,32.83034]}},{"type":"Feature","properties":{"name":"Flow-Dyne Engineering Inc","addr":"4108 Garland Dr"},"geometry":{"type":"Point","coordinates":[-97.2851,32.83034]}},{"type":"Feature","properties":{"name":"Jps School Based Health Center","addr":"2011 Prospect Ave"},"geometry":{"type":"Point","coordinates":[-97.35559,32.78162]}},{"type":"Feature","properties":{"name":"Wesco Industries Inc","addr":"8717 Forum Way"},"geometry":{"type":"Point","coordinates":[-97.31119,32.62701]}},{"type":"Feature","properties":{"name":"Family Christian Doors","addr":"2809 Haltom Rd"},"geometry":{"type":"Point","coordinates":[-97.27322,32.79504]}},{"type":"Feature","properties":{"name":"Riverside Iglesia Nazareno","addr":"3203 NE 28th St"},"geometry":{"type":"Point","coordinates":[-97.30092,32.7952]}},{"type":"Feature","properties":{"name":"Spectrum Technologies","addr":"5400 Airport Fwy"},"geometry":{"type":"Point","coordinates":[-97.26757,32.78408]}},{"type":"Feature","properties":{"name":"Let's Jump","addr":"5200-5204 Airport Fwy"},"geometry":{"type":"Point","coordinates":[-97.26997,32.78293]}},{"type":"Feature","properties":{"name":"IHG Mechanical Holdings LLC","addr":"9601-9625 Camp Bowie West Blvd"},"geometry":{"type":"Point","coordinates":[-97.49051,32.72458]}},{"type":"Feature","properties":{"name":"Jt Plumbing Co","addr":"4100 Clay Ave"},"geometry":{"type":"Point","coordinates":[-97.2874,32.82892]}},{"type":"Feature","properties":{"name":"M&K Plating, Inc.","addr":"2621 Finley St"},"geometry":{"type":"Point","coordinates":[-97.30853,32.75731]}},{"type":"Feature","properties":{"name":"Audax Private Equity","addr":"4112 Garland Dr"},"geometry":{"type":"Point","coordinates":[-97.28503,32.83034]}},{"type":"Feature","properties":{"name":"Dorothy Shaw Bell Choir","addr":"3901 S Hulen St"},"geometry":{"type":"Point","coordinates":[-97.39375,32.69186]}},{"type":"Feature","properties":{"name":"Circle A Electric","addr":"1051 Kennedy Ln"},"geometry":{"type":"Point","coordinates":[-97.34363,32.85753]}},{"type":"Feature","properties":{"name":"Double Eagle Mechanical Service","addr":"825 Southway Cir"},"geometry":{"type":"Point","coordinates":[-97.3192,32.67048]}},{"type":"Feature","properties":{"name":"Reddy Ice Corporation","addr":"601 N Sylvania Ave"},"geometry":{"type":"Point","coordinates":[-97.30884,32.77204]}},{"type":"Feature","properties":{"name":"Painters USA","addr":"1340 Post & Paddock Rd"},"geometry":{"type":"Point","coordinates":[-97.04344,32.79326]}},{"type":"Feature","properties":{"name":"Law Offices of Barry Martines","addr":"2601 Airport Fwy"},"geometry":{"type":"Point","coordinates":[-97.30881,32.76793]}},{"type":"Feature","properties":{"name":"Into The Garden, Inc.","addr":"4600 Dexter Ave"},"geometry":{"type":"Point","coordinates":[-97.38771,32.74062]}},{"type":"Feature","properties":{"name":"Nick's Custom Detailing","addr":"1812 Reliance Pky"},"geometry":{"type":"Point","coordinates":[-97.10787,32.83847]}},{"type":"Feature","properties":{"name":"Casa Manana Theatre","addr":"3101 W. Lancaster Ave"},"geometry":{"type":"Point","coordinates":[-97.36195,32.74734]}},{"type":"Feature","properties":{"name":"Frisbie Electric Co","addr":"201 Page St"},"geometry":{"type":"Point","coordinates":[-97.32711,32.71659]}},{"type":"Feature","properties":{"name":"Antler Mechanical LLC","addr":"4113 Clay Ave"},"geometry":{"type":"Point","coordinates":[-97.28706,32.82903]}},{"type":"Feature","properties":{"name":"City Fellowship Church","addr":"3501-3529 NW Loop 820"},"geometry":{"type":"Point","coordinates":[-97.39844,32.81984]}},{"type":"Feature","properties":{"name":"Elite Fitness Headquarters","addr":"12124 S Pipeline Rd"},"geometry":{"type":"Point","coordinates":[-97.10416,32.82237]}},{"type":"Feature","properties":{"name":"C & C Auto Group","addr":"5033 Saunders Rd"},"geometry":{"type":"Point","coordinates":[-97.24767,32.67669]}},{"type":"Feature","properties":{"name":"All Star Party Service","addr":"113-117 S Sylvania Ave"},"geometry":{"type":"Point","coordinates":[-97.30889,32.76508]}},{"type":"Feature","properties":{"name":"Clear Kut Engraving Inc","addr":"2417 Thomas Rd"},"geometry":{"type":"Point","coordinates":[-97.26218,32.79519]}},{"type":"Feature","properties":{"name":"Braum's","addr":"8909 Highway 377 S"},"geometry":{"type":"Point","coordinates":[-97.46605,32.67697]}},{"type":"Feature","properties":{"name":"Sportswear Graphics Inc","addr":"110 Saint Louis Ave"},"geometry":{"type":"Point","coordinates":[-97.32876,32.7436]}},{"type":"Feature","properties":{"name":"Williams Scotsman","addr":"4590 Carey Rd"},"geometry":{"type":"Point","coordinates":[-97.24338,32.69699]}},{"type":"Feature","properties":{"name":"Strata Materials LLC","addr":"2100 N State Highway 360"},"geometry":{"type":"Point","coordinates":[-97.0587,32.78539]}},{"type":"Feature","properties":{"name":"Airgas","addr":"1420 Riverside Dr"},"geometry":{"type":"Point","coordinates":[-97.30361,32.75307]}},{"type":"Feature","properties":{"name":"U-Haul","addr":"2851 Evans Ave"},"geometry":{"type":"Point","coordinates":[-97.31838,32.70997]}},{"type":"Feature","properties":{"name":"New Restoration Church","addr":"3632 Chapin Rd"},"geometry":{"type":"Point","coordinates":[-97.4741,32.71964]}},{"type":"Feature","properties":{"name":"Herzog Technologies Inc.","addr":"14500 Trinity Blvd"},"geometry":{"type":"Point","coordinates":[-97.05305,32.82206]}},{"type":"Feature","properties":{"name":"Fairway Landscaping","addr":"1114 S Airport Cir"},"geometry":{"type":"Point","coordinates":[-97.11422,32.82137]}},{"type":"Feature","properties":{"name":"Maaco","addr":"3215 Euless Blvd"},"geometry":{"type":"Point","coordinates":[-97.13615,32.81573]}},{"type":"Feature","properties":{"name":"Schindler Elevator Corp","addr":"1101 E 1st St"},"geometry":{"type":"Point","coordinates":[-97.32498,32.76012]}},{"type":"Feature","properties":{"name":"All Specs Sales Inc","addr":"2125 109th St"},"geometry":{"type":"Point","coordinates":[-97.05302,32.78726]}},{"type":"Feature","properties":{"name":"Abbey Carpet","addr":"5212 Airport Fwy"},"geometry":{"type":"Point","coordinates":[-97.26908,32.78336]}},{"type":"Feature","properties":{"name":"Comfort Tech","addr":"4201 Broadway Ave"},"geometry":{"type":"Point","coordinates":[-97.28698,32.80978]}},{"type":"Feature","properties":{"name":"Solcrete","addr":"5051 David Strickland Rd"},"geometry":{"type":"Point","coordinates":[-97.2473,32.68176]}},{"type":"Feature","properties":{"name":"West Equipment & Service Corp","addr":"1663 Hickory Dr"},"geometry":{"type":"Point","coordinates":[-97.26512,32.78367]}},{"type":"Feature","properties":{"name":"jax glass","addr":"2301 Higgins Ln"},"geometry":{"type":"Point","coordinates":[-97.28554,32.79312]}},{"type":"Feature","properties":{"name":"Barbara's Dance Fashions","addr":"204 W Holloway Dr"},"geometry":{"type":"Point","coordinates":[-97.17106,32.81009]}},{"type":"Feature","properties":{"name":"Puroclean","addr":"1000 Kennedy Ln"},"geometry":{"type":"Point","coordinates":[-97.34411,32.85766]}},{"type":"Feature","properties":{"name":"Metroplex Wraps","addr":"2161-2177 E Loop 820 N"},"geometry":{"type":"Point","coordinates":[-97.21334,32.78955]}},{"type":"Feature","properties":{"name":"TexHAs.com","addr":"3000-3022 SE Loop 820"},"geometry":{"type":"Point","coordinates":[-97.28523,32.66155]}},{"type":"Feature","properties":{"name":"Stratos Aerospace","addr":"3024-3046 SE Loop 820"},"geometry":{"type":"Point","coordinates":[-97.2847,32.66139]}},{"type":"Feature","properties":{"name":"Bier Beverages","addr":"3048-3070 SE Loop 820"},"geometry":{"type":"Point","coordinates":[-97.28415,32.66126]}},{"type":"Feature","properties":{"name":"Evolution Games","addr":"3122 SE Loop 820"},"geometry":{"type":"Point","coordinates":[-97.29197,32.66453]}},{"type":"Feature","properties":{"name":"Quality Living Through Choices","addr":"3122 SE Loop 820"},"geometry":{"type":"Point","coordinates":[-97.29197,32.66453]}},{"type":"Feature","properties":{"name":"SILVERADO REPAIR SERVICES","addr":"4112 McLean Rd"},"geometry":{"type":"Point","coordinates":[-97.28707,32.83161]}},{"type":"Feature","properties":{"name":"Richell USA Inc","addr":"2214 Paddock Way"},"geometry":{"type":"Point","coordinates":[-97.05719,32.78908]}},{"type":"Feature","properties":{"name":"Rodak's Cadillac Repair","addr":"2520 Pafford St"},"geometry":{"type":"Point","coordinates":[-97.35433,32.69226]}},{"type":"Feature","properties":{"name":"Archadeck Of North Texas Inc","addr":"6100 W Pioneer Pky"},"geometry":{"type":"Point","coordinates":[-97.20022,32.7261]}},{"type":"Feature","properties":{"name":"Daikin Applied","addr":"1250 Post N Paddock St"},"geometry":{"type":"Point","coordinates":[-97.04523,32.79326]}},{"type":"Feature","properties":{"name":"Ahlers Aerospace Inc","addr":"3621 Raider Dr"},"geometry":{"type":"Point","coordinates":[-97.13479,32.81351]}},{"type":"Feature","properties":{"name":"Texas Lawns","addr":"3040 Ramona Dr"},"geometry":{"type":"Point","coordinates":[-97.44494,32.72979]}},{"type":"Feature","properties":{"name":"EMLER swim school","addr":"6200-6260 Southwest Blvd"},"geometry":{"type":"Point","coordinates":[-97.41682,32.69145]}},{"type":"Feature","properties":{"name":"Dietz Laboratories, Inc.","addr":"3124 Stuart Dr"},"geometry":{"type":"Point","coordinates":[-97.32419,32.70557]}},{"type":"Feature","properties":{"name":"Transsolutions","addr":"14600 Trinity Blvd"},"geometry":{"type":"Point","coordinates":[-97.05119,32.82202]}},{"type":"Feature","properties":{"name":"Sherwin-Williams Automotive Finishes","addr":"125 N Sylvania Ave"},"geometry":{"type":"Point","coordinates":[-97.30902,32.76551]}},{"type":"Feature","properties":{"name":"Boy Scouts of America","addr":"5350 Basswood Blvd"},"geometry":{"type":"Point","coordinates":[-97.27078,32.87392]}},{"type":"Feature","properties":{"name":"Camilleri & Company","addr":"8717 Forum Way"},"geometry":{"type":"Point","coordinates":[-97.31119,32.62701]}},{"type":"Feature","properties":{"name":"Meadowbrook East Bible Chapel","addr":"1939 Handley Dr"},"geometry":{"type":"Point","coordinates":[-97.21621,32.75097]}},{"type":"Feature","properties":{"name":"Fpi Builders","addr":"2116 Wenneca Ave"},"geometry":{"type":"Point","coordinates":[-97.34895,32.74097]}},{"type":"Feature","properties":{"name":"Howell Service Co Inc","addr":"5412 E Belknap St"},"geometry":{"type":"Point","coordinates":[-97.26863,32.79676]}},{"type":"Feature","properties":{"name":"QRS Calibrations Inc.","addr":"2163 Golden Heights Rd"},"geometry":{"type":"Point","coordinates":[-97.32627,32.93133]}},{"type":"Feature","properties":{"name":"Beam 5 Enterprises","addr":"2163 Golden Heights Rd"},"geometry":{"type":"Point","coordinates":[-97.32627,32.93133]}},{"type":"Feature","properties":{"name":"Henry Arguijo d/b/a Mobile Tarping Systems","addr":"760-780 N Beach St"},"geometry":{"type":"Point","coordinates":[-97.28733,32.77363]}},{"type":"Feature","properties":{"name":"Clearpoint Chemicals","addr":"4205 Stadium Dr"},"geometry":{"type":"Point","coordinates":[-97.36498,32.68625]}},{"type":"Feature","properties":{"name":"Witherspoon Services Company","addr":"4205 Stadium Dr"},"geometry":{"type":"Point","coordinates":[-97.36498,32.68625]}},{"type":"Feature","properties":{"name":"The Soden Group","addr":"4451 Dale Earnhardt"},"geometry":{"type":"Point","coordinates":[-97.25437,33.02593]}},{"type":"Feature","properties":{"name":"Quick Mix Concrete","addr":"3024 Bryan Ave"},"geometry":{"type":"Point","coordinates":[-97.32533,32.70712]}},{"type":"Feature","properties":{"name":"Wagner Meinert Inc","addr":"850-900 Blue Mound Rd W"},"geometry":{"type":"Point","coordinates":[-97.32732,32.94742]}},{"type":"Feature","properties":{"name":"TXO Restoration LLC","addr":"3220 Collinsworth St"},"geometry":{"type":"Point","coordinates":[-97.36324,32.72618]}},{"type":"Feature","properties":{"name":"PVI Industries, LLC","addr":"3220 Galvez Ave"},"geometry":{"type":"Point","coordinates":[-97.30142,32.76218]}},{"type":"Feature","properties":{"name":"Anchor Roofing Systems, Ltd.","addr":"2809 Houston St N"},"geometry":{"type":"Point","coordinates":[-97.35159,32.79551]}},{"type":"Feature","properties":{"name":"Ironhaus Doors","addr":"2921 Suffolk Dr"},"geometry":{"type":"Point","coordinates":[-97.35972,32.68733]}},{"type":"Feature","properties":{"name":"C & E Custom Bedspreads","addr":"4209 Clay Ave"},"geometry":{"type":"Point","coordinates":[-97.28433,32.82921]}},{"type":"Feature","properties":{"name":"A W Drywall","addr":"3505 Reagan Dr"},"geometry":{"type":"Point","coordinates":[-97.44762,32.72166]}},{"type":"Feature","properties":{"name":"Gurdwarra sikh Sangat","addr":"1400 W Euless Blvd"},"geometry":{"type":"Point","coordinates":[-97.10605,32.82662]}},{"type":"Feature","properties":{"name":"Red Carpet Car Wash","addr":"5829 Curzon Ave"},"geometry":{"type":"Point","coordinates":[-97.41029,32.73019]}},{"type":"Feature","properties":{"name":"JMS Heating & Air Conditioning","addr":"3141 S Main St"},"geometry":{"type":"Point","coordinates":[-97.32633,32.70489]}},{"type":"Feature","properties":{"name":"Steel Inspectors Of Texas Inc","addr":"7600 Wagnon St"},"geometry":{"type":"Point","coordinates":[-97.44607,32.76192]}},{"type":"Feature","properties":{"name":"Kite's Drapery Cleaning","addr":"2711 White Settlement Rd"},"geometry":{"type":"Point","coordinates":[-97.35482,32.75902]}},{"type":"Feature","properties":{"name":"Safeway Truck Lunes LLC","addr":"2100 N State Highway 360"},"geometry":{"type":"Point","coordinates":[-97.0587,32.78539]}},{"type":"Feature","properties":{"name":"Kelly Larson","addr":"1812 Reliance Pky"},"geometry":{"type":"Point","coordinates":[-97.10787,32.83847]}},{"type":"Feature","properties":{"name":"Pneumatic Technology, Inc.","addr":"1744 E Square St"},"geometry":{"type":"Point","coordinates":[-97.17834,32.75481]}},{"type":"Feature","properties":{"name":"Distilled Media","addr":"4400-4406 Airport Fwy"},"geometry":{"type":"Point","coordinates":[-97.28408,32.77624]}},{"type":"Feature","properties":{"name":"Pristine Car Wash","addr":"5500 Alta Mesa Rd"},"geometry":{"type":"Point","coordinates":[-97.40988,32.64406]}},{"type":"Feature","properties":{"name":"Fire Retardant Coatings Of TX","addr":"1150 Blue Mound Rd W"},"geometry":{"type":"Point","coordinates":[-97.37986,32.94639]}},{"type":"Feature","properties":{"name":"Sonlight Cleaning Svc","addr":"4013 Clay Ave"},"geometry":{"type":"Point","coordinates":[-97.28992,32.82904]}},{"type":"Feature","properties":{"name":"Creative Innovations, LLC","addr":"1001 Kennedy Ln"},"geometry":{"type":"Point","coordinates":[-97.34412,32.85755]}},{"type":"Feature","properties":{"name":"More Clean","addr":"1001 Kennedy Ln"},"geometry":{"type":"Point","coordinates":[-97.34412,32.85755]}},{"type":"Feature","properties":{"name":"Katie's Car Wash","addr":"4301 South Fwy"},"geometry":{"type":"Point","coordinates":[-97.32022,32.68521]}},{"type":"Feature","properties":{"name":"Precision Sign","addr":"10409 South Fwy"},"geometry":{"type":"Point","coordinates":[-97.31949,32.6044]}},{"type":"Feature","properties":{"name":"Beer Garden","addr":"816 S Sylvania Ct"},"geometry":{"type":"Point","coordinates":[-97.30907,32.75838]}},{"type":"Feature","properties":{"name":"Ballard Sales Co","addr":"3420 E Vickery Blvd"},"geometry":{"type":"Point","coordinates":[-97.27613,32.73447]}},{"type":"Feature","properties":{"name":"Rocket Roadside Rescue, LLC","addr":"6400 Boat Club Rd"},"geometry":{"type":"Point","coordinates":[-97.4263,32.84871]}},{"type":"Feature","properties":{"name":"Sara Esquivel Ministries","addr":"5000 Sun Valley Dr"},"geometry":{"type":"Point","coordinates":[-97.2483,32.67912]}},{"type":"Feature","properties":{"name":"HomeTeam Pest Defense","addr":"9601-9625 Camp Bowie West Blvd"},"geometry":{"type":"Point","coordinates":[-97.49051,32.72458]}},{"type":"Feature","properties":{"name":"Ryders Connection","addr":"1304 Northwest Pky"},"geometry":{"type":"Point","coordinates":[-97.5641,32.90553]}},{"type":"Feature","properties":{"name":"Lydia Martinez, CPA","addr":"3408-3424 S Jones St"},"geometry":{"type":"Point","coordinates":[-97.32336,32.69995]}},{"type":"Feature","properties":{"name":"Tuff Shed Inc","addr":"5001 Airport Fwy"},"geometry":{"type":"Point","coordinates":[-97.27632,32.78092]}},{"type":"Feature","properties":{"name":"Poteet Printing Systems","addr":"2924 Edith Ln"},"geometry":{"type":"Point","coordinates":[-97.28655,32.79612]}},{"type":"Feature","properties":{"name":"Dynamic Productions","addr":"5070 Mark IV Pky"},"geometry":{"type":"Point","coordinates":[-97.32096,32.83537]}},{"type":"Feature","properties":{"name":"WhiteWater Express Car Wash","addr":"1998 E Main St"},"geometry":{"type":"Point","coordinates":[-97.33572,32.57762]}},{"type":"Feature","properties":{"name":"Trinity Plumbing","addr":"4108 Clay Ave"},"geometry":{"type":"Point","coordinates":[-97.28717,32.82891]}},{"type":"Feature","properties":{"name":"DFW Materials","addr":"4200 N Main St"},"geometry":{"type":"Point","coordinates":[-97.35151,32.81858]}},{"type":"Feature","properties":{"name":"Power Products Inc","addr":"4324 Nelms Dr"},"geometry":{"type":"Point","coordinates":[-97.23837,32.6992]}},{"type":"Feature","properties":{"name":"Texas Holdings Firm Corporation","addr":"2100 N State Highway 360"},"geometry":{"type":"Point","coordinates":[-97.0587,32.78539]}},{"type":"Feature","properties":{"name":"Monterey Energy","addr":"2100 N State Highway 360"},"geometry":{"type":"Point","coordinates":[-97.0587,32.78539]}},{"type":"Feature","properties":{"name":"Fort Worth Liquidators","addr":"760-780 N Beach St"},"geometry":{"type":"Point","coordinates":[-97.28733,32.77363]}},{"type":"Feature","properties":{"name":"Systec Innovative Tech LLC","addr":"1361 W Euless Blvd"},"geometry":{"type":"Point","coordinates":[-97.10486,32.82677]}},{"type":"Feature","properties":{"name":"Erws Site Solutions","addr":"5035 Vesta Farley Rd"},"geometry":{"type":"Point","coordinates":[-97.24763,32.68049]}},{"type":"Feature","properties":{"name":"XS Roofing","addr":"200 E Vickery Blvd"},"geometry":{"type":"Point","coordinates":[-97.32497,32.74353]}},{"type":"Feature","properties":{"name":"Garcia Carpet Cleaning Service","addr":"2419 Hemphill St"},"geometry":{"type":"Point","coordinates":[-97.33152,32.71613]}},{"type":"Feature","properties":{"name":"Boswell Aluminum Product","addr":"2624 Lipscomb St"},"geometry":{"type":"Point","coordinates":[-97.33364,32.71398]}},{"type":"Feature","properties":{"name":"Byrne Construction Services, LLC","addr":"551 E Berry St"},"geometry":{"type":"Point","coordinates":[-97.32272,32.70634]}},{"type":"Feature","properties":{"name":"Boese Millworks Inc","addr":"4100 Garland Dr"},"geometry":{"type":"Point","coordinates":[-97.28524,32.83034]}},{"type":"Feature","properties":{"name":"Embellished Bodies","addr":"6206 South Fwy"},"geometry":{"type":"Point","coordinates":[-97.32174,32.6566]}},{"type":"Feature","properties":{"name":"Pentecostal Church Of God","addr":"2815 Chenault St"},"geometry":{"type":"Point","coordinates":[-97.30621,32.76433]}},{"type":"Feature","properties":{"name":"Juan Gallegos","addr":"5532 Midway Rd"},"geometry":{"type":"Point","coordinates":[-97.26449,32.79482]}},{"type":"Feature","properties":{"name":"Romance Store","addr":"6900 South Fwy"},"geometry":{"type":"Point","coordinates":[-97.32184,32.6448]}},{"type":"Feature","properties":{"name":"Turner Controls Inc","addr":"3145 S Main St"},"geometry":{"type":"Point","coordinates":[-97.32633,32.70484]}},{"type":"Feature","properties":{"name":"Hammons Garage","addr":"3453 McCart Ave"},"geometry":{"type":"Point","coordinates":[-97.35289,32.69985]}},{"type":"Feature","properties":{"name":"Iglesia Evangelica Rosa De Saron","addr":"2916 E 1st St"},"geometry":{"type":"Point","coordinates":[-97.30473,32.7652]}},{"type":"Feature","properties":{"name":"Galvan Floors LLC","addr":"3140 South Fwy"},"geometry":{"type":"Point","coordinates":[-97.32107,32.70478]}},{"type":"Feature","properties":{"name":"American Subcontractors Association North Texas","addr":"2100 N State Highway 360"},"geometry":{"type":"Point","coordinates":[-97.0587,32.78539]}},{"type":"Feature","properties":{"name":"Eagle Audio","addr":"3417 Raider Dr"},"geometry":{"type":"Point","coordinates":[-97.13497,32.81014]}},{"type":"Feature","properties":{"name":"Wespac Inc","addr":"3200 Bonnie Dr"},"geometry":{"type":"Point","coordinates":[-97.44636,32.72631]}},{"type":"Feature","properties":{"name":"Palumbo's Irrigation & Landscape","addr":"6001 Huddleston St"},"geometry":{"type":"Point","coordinates":[-97.26669,32.85787]}},{"type":"Feature","properties":{"name":"Texas Sewing Machine Distributors Inc","addr":"1920 E Lancaster Ave"},"geometry":{"type":"Point","coordinates":[-97.30042,32.74591]}},{"type":"Feature","properties":{"name":"Precision Dynamics","addr":"406 N Commerce St"},"geometry":{"type":"Point","coordinates":[-97.32006,32.55069]}},{"type":"Feature","properties":{"name":"Gateway Archery","addr":"3727-3733 N Beach St"},"geometry":{"type":"Point","coordinates":[-97.29072,32.81156]}},{"type":"Feature","properties":{"name":"Euro-Spec Service","addr":"3040 Marquita Dr"},"geometry":{"type":"Point","coordinates":[-97.44359,32.72979]}},{"type":"Feature","properties":{"name":"Randy Trice","addr":"3128 S Main St"},"geometry":{"type":"Point","coordinates":[-97.32647,32.70505]}},{"type":"Feature","properties":{"name":"Fleet Clean","addr":"2100 N State Highway 360"},"geometry":{"type":"Point","coordinates":[-97.0587,32.78539]}},{"type":"Feature","properties":{"name":"Vantex Electric Products","addr":"4901-4905 Airport Fwy"},"geometry":{"type":"Point","coordinates":[-97.27808,32.78004]}},{"type":"Feature","properties":{"name":"Turbo Tire","addr":"2913 N Main St"},"geometry":{"type":"Point","coordinates":[-97.34992,32.79779]}},{"type":"Feature","properties":{"name":"Metalcraft Electric Sign Co","addr":"606 Grace Ave"},"geometry":{"type":"Point","coordinates":[-97.30769,32.77225]}},{"type":"Feature","properties":{"name":"Haros Partners, L.P.","addr":"5112 Mosson Rd"},"geometry":{"type":"Point","coordinates":[-97.24609,32.6753]}},{"type":"Feature","properties":{"name":"Biomed of Texas","addr":"4100-4108 Amon Carter Blvd"},"geometry":{"type":"Point","coordinates":[-97.04887,32.82239]}},{"type":"Feature","properties":{"name":"Lone Star Dedicated","addr":"1150 Blue Mount Rd W"},"geometry":{"type":"Point","coordinates":[-97.37986,32.94639]}},{"type":"Feature","properties":{"name":"Barlag Tool","addr":"3528 Raider Dr"},"geometry":{"type":"Point","coordinates":[-97.13533,32.80803]}},{"type":"Feature","properties":{"name":"New Halleujah Church","addr":"2790 Keller Hicks Rd"},"geometry":{"type":"Point","coordinates":[-97.30152,32.93898]}},{"type":"Feature","properties":{"name":"Floors To Go","addr":"5212 Airport Fwy"},"geometry":{"type":"Point","coordinates":[-97.26908,32.78336]}},{"type":"Feature","properties":{"name":"Olen Williams Inc","addr":"1123 S Airport Cir"},"geometry":{"type":"Point","coordinates":[-97.11391,32.82161]}},{"type":"Feature","properties":{"name":"Wilmac Enterprises","addr":"3753-3759 N Beach St"},"geometry":{"type":"Point","coordinates":[-97.29073,32.81205]}},{"type":"Feature","properties":{"name":"Arlington Heights Christian Church","addr":"4629 Bryce Ave"},"geometry":{"type":"Point","coordinates":[-97.38816,32.73949]}},{"type":"Feature","properties":{"name":"Crosby Roofing","addr":"4213 Clay Ave"},"geometry":{"type":"Point","coordinates":[-97.28422,32.82921]}},{"type":"Feature","properties":{"name":"U-Haul Moving & Storage At Collins & Green","addr":"2729 N Collins St"},"geometry":{"type":"Point","coordinates":[-97.09591,32.78154]}},{"type":"Feature","properties":{"name":"Dwayne's Landscape","addr":"14789 Endeavor Way"},"geometry":{"type":"Point","coordinates":[-97.26607,33.00488]}},{"type":"Feature","properties":{"name":"Foundry Fence","addr":"130 E Felix St"},"geometry":{"type":"Point","coordinates":[-97.32635,32.67802]}},{"type":"Feature","properties":{"name":"Alliance Community Fellowship","addr":"2185 Golden Heights Rd"},"geometry":{"type":"Point","coordinates":[-97.32549,32.93132]}},{"type":"Feature","properties":{"name":"U-Haul","addr":"7225 S Hulen"},"geometry":{"type":"Point","coordinates":[-97.39567,32.64227]}},{"type":"Feature","properties":{"name":"Burleson Express Car Wash","addr":"1055 NW John Jones Dr"},"geometry":{"type":"Point","coordinates":[-97.36212,32.53995]}},{"type":"Feature","properties":{"name":"U-Haul Moving & Storage of E Fort Worth at 820 & I","addr":"1101 E Loop 820"},"geometry":{"type":"Point","coordinates":[-97.21208,32.76565]}},{"type":"Feature","properties":{"name":"Duncan Aviation Inc","addr":"4200 N Main St"},"geometry":{"type":"Point","coordinates":[-97.35151,32.81858]}},{"type":"Feature","properties":{"name":"S. A. WHITE ELECTRIC, INC.","addr":"3427 McCart Ave"},"geometry":{"type":"Point","coordinates":[-97.3529,32.70029]}},{"type":"Feature","properties":{"name":"Speedclean Car Wash","addr":"6201 McCart Ave"},"geometry":{"type":"Point","coordinates":[-97.3625,32.6545]}},{"type":"Feature","properties":{"name":"Blueknight Energy Partners, L.P.","addr":"600 Minton Rd"},"geometry":{"type":"Point","coordinates":[-97.36686,32.87081]}},{"type":"Feature","properties":{"name":"Trinity Christian Church","addr":"2100 Morrison Dr"},"geometry":{"type":"Point","coordinates":[-97.18798,32.74916]}},{"type":"Feature","properties":{"name":"PharMerica","addr":"2214 Paddock Way"},"geometry":{"type":"Point","coordinates":[-97.05719,32.78908]}},{"type":"Feature","properties":{"name":"Rocker B Investments, Inc.","addr":"1635 Rogers Rd"},"geometry":{"type":"Point","coordinates":[-97.36479,32.72739]}},{"type":"Feature","properties":{"name":"City of Fort Worth Housing Department","addr":"200 Texas St"},"geometry":{"type":"Point","coordinates":[-97.33031,32.74839]}},{"type":"Feature","properties":{"name":"Structured Foundation Repairs Inc","addr":"13301 Trinity Blvd"},"geometry":{"type":"Point","coordinates":[-97.08228,32.81977]}},{"type":"Feature","properties":{"name":"Janiel Boniford Co","addr":"2400 Whitmore St"},"geometry":{"type":"Point","coordinates":[-97.34928,32.75811]}},{"type":"Feature","properties":{"name":"Burleson Car Wash","addr":"537 SW Wilshire Blvd"},"geometry":{"type":"Point","coordinates":[-97.33398,32.53706]}}]}