{"type":"FeatureCollection","category":"MDU Lists","count":2905,"units":560326,"features":[{"type":"Feature","properties":{"name":"Shops at Hunter Plaza","addr":"605 W 1st St","units":164},"geometry":{"type":"Point","coordinates":[-97.33626,32.75424]}},{"type":"Feature","properties":{"name":"Olympus 7th Street Station","addr":"2601 W 7th St","units":189},"geometry":{"type":"Point","coordinates":[-97.3545,32.75056]}},{"type":"Feature","properties":{"name":"Park Plaza Apartments","addr":"2001 Aden Rd","units":232},"geometry":{"type":"Point","coordinates":[-97.42771,32.73799]}},{"type":"Feature","properties":{"name":"Sonterra Apartments","addr":"700 Airport Fwy","units":205},"geometry":{"type":"Point","coordinates":[-97.18483,32.8405]}},{"type":"Feature","properties":{"name":"Parc Place Retirement Community","addr":"1301 Airport Fwy","units":180},"geometry":{"type":"Point","coordinates":[-97.14632,32.83894]}},{"type":"Feature","properties":{"name":"Bandera Ranch Apartments","addr":"1881 Airport Fwy","units":164},"geometry":{"type":"Point","coordinates":[-97.11218,32.83589]}},{"type":"Feature","properties":{"name":"The Life at Westland Estates","addr":"2950 Alemeda St","units":192},"geometry":{"type":"Point","coordinates":[-97.48462,32.72967]}},{"type":"Feature","properties":{"name":"Clayton Pointe Apartments","addr":"2955 Alouette Dr","units":246},"geometry":{"type":"Point","coordinates":[-97.06053,32.70241]}},{"type":"Feature","properties":{"name":"Encore Alsbury","addr":"1350 SW Alsbury Blvd","units":200},"geometry":{"type":"Point","coordinates":[-97.36443,32.53795]}},{"type":"Feature","properties":{"name":"Solea Keller","addr":"11508 Alta Vista Rd","units":186},"geometry":{"type":"Point","coordinates":[-97.28024,32.93985]}},{"type":"Feature","properties":{"name":"Lost Spurs Ranch Apartments","addr":"13450 Alta Vista Rd","units":240},"geometry":{"type":"Point","coordinates":[-97.28089,32.9743]}},{"type":"Feature","properties":{"name":"Railridge Apartments","addr":"2515 Altamesa Blvd","units":160},"geometry":{"type":"Point","coordinates":[-97.35467,32.64756]}},{"type":"Feature","properties":{"name":"Avilla Trails","addr":"5669 Altamesa Blvd","units":230},"geometry":{"type":"Point","coordinates":[-97.41272,32.64333]}},{"type":"Feature","properties":{"name":"Amherst Bedford Apartments","addr":"1121 Amherst Dr","units":204},"geometry":{"type":"Point","coordinates":[-97.14921,32.86209]}},{"type":"Feature","properties":{"name":"Element Apartments","addr":"1516 Arbor Town Cir","units":200},"geometry":{"type":"Point","coordinates":[-97.0939,32.75849]}},{"type":"Feature","properties":{"name":"Emerson South Collins","addr":"1101 E Arbrook Blvd","units":178},"geometry":{"type":"Point","coordinates":[-97.09283,32.6857]}},{"type":"Feature","properties":{"name":"Overture Highlands","addr":"250 W Arbrook Blvd","units":167},"geometry":{"type":"Point","coordinates":[-97.10887,32.68343]}},{"type":"Feature","properties":{"name":"Treetops RV Resort","addr":"1901 W Arbrook Blvd","units":174},"geometry":{"type":"Point","coordinates":[-97.14029,32.68641]}},{"type":"Feature","properties":{"name":"The Marq on West 7th","addr":"701 Arch Adams St","units":217},"geometry":{"type":"Point","coordinates":[-97.36439,32.75192]}},{"type":"Feature","properties":{"name":"The Jerry","addr":"600 E Arkansas Ln","units":204},"geometry":{"type":"Point","coordinates":[-97.10286,32.70572]}},{"type":"Feature","properties":{"name":"The Paisley","addr":"1010 E Arkansas Ln","units":200},"geometry":{"type":"Point","coordinates":[-97.09586,32.70564]}},{"type":"Feature","properties":{"name":"Ash Lane","addr":"601 E Ash Ln","units":250},"geometry":{"type":"Point","coordinates":[-97.07244,32.85969]}},{"type":"Feature","properties":{"name":"Tides on Avril","addr":"8841 Avril Ct N","units":176},"geometry":{"type":"Point","coordinates":[-97.46961,32.72672]}},{"type":"Feature","properties":{"name":"Lindbergh Parc Apartments","addr":"5600 Azle Ave","units":196},"geometry":{"type":"Point","coordinates":[-97.40345,32.81195]}},{"type":"Feature","properties":{"name":"Alton Park","addr":"5800 Azle Ave","units":195},"geometry":{"type":"Point","coordinates":[-97.40627,32.81223]}},{"type":"Feature","properties":{"name":"Rio Vista","addr":"6324 Baker Blvd","units":246},"geometry":{"type":"Point","coordinates":[-97.24507,32.80674]}},{"type":"Feature","properties":{"name":"Stallion Ridge","addr":"9000 Balch St","units":204},"geometry":{"type":"Point","coordinates":[-97.28259,32.62008]}},{"type":"Feature","properties":{"name":"The Orchards at Arlington Highlands","addr":"131 E Bardin Rd","units":180},"geometry":{"type":"Point","coordinates":[-97.1129,32.6716]}},{"type":"Feature","properties":{"name":"Cottages at Summer Creek","addr":"5401 Barlean Rnch","units":196},"geometry":{"type":"Point","coordinates":[-97.40877,32.6115]}},{"type":"Feature","properties":{"name":"Fossil Hill","addr":"5700 N Beach St","units":216},"geometry":{"type":"Point","coordinates":[-97.28952,32.84934]}},{"type":"Feature","properties":{"name":"Garden Gate","addr":"6901 N Beach St","units":240},"geometry":{"type":"Point","coordinates":[-97.29245,32.86466]}},{"type":"Feature","properties":{"name":"Creekside at  North Beach","addr":"7000 N Beach St","units":216},"geometry":{"type":"Point","coordinates":[-97.2903,32.86755]}},{"type":"Feature","properties":{"name":"North Park Landing Apartments","addr":"9001 N Beach St","units":226},"geometry":{"type":"Point","coordinates":[-97.29067,32.90384]}},{"type":"Feature","properties":{"name":"Oakmont of Bear Creek","addr":"2121 Bear Creek Pky","units":226},"geometry":{"type":"Point","coordinates":[-97.07116,32.86746]}},{"type":"Feature","properties":{"name":"Copper Hill","addr":"3000 Bedford Rd","units":204},"geometry":{"type":"Point","coordinates":[-97.11397,32.84447]}},{"type":"Feature","properties":{"name":"Oasis Springs","addr":"601 Bellaire Dr","units":154},"geometry":{"type":"Point","coordinates":[-97.16015,32.82199]}},{"type":"Feature","properties":{"name":"Copper Ridge Apartments","addr":"5643 Bellaire Dr S","units":200},"geometry":{"type":"Point","coordinates":[-97.41875,32.69487]}},{"type":"Feature","properties":{"name":"Leander","addr":"5707 Bellaire Dr S","units":168},"geometry":{"type":"Point","coordinates":[-97.42129,32.69518]}},{"type":"Feature","properties":{"name":"Grand at Saginaw","addr":"1451 Beltmill Pky","units":236},"geometry":{"type":"Point","coordinates":[-97.37819,32.88275]}},{"type":"Feature","properties":{"name":"Yardly Beltmill","addr":"1551 Beltmill Pky","units":181},"geometry":{"type":"Point","coordinates":[-97.38301,32.88477]}},{"type":"Feature","properties":{"name":"Primavera","addr":"2201 E Berry St","units":164},"geometry":{"type":"Point","coordinates":[-97.29906,32.70706]}},{"type":"Feature","properties":{"name":"Villas By The Park","addr":"2450 E Berry St","units":172},"geometry":{"type":"Point","coordinates":[-97.29288,32.70599]}},{"type":"Feature","properties":{"name":"Villas of Eastwood Terrace","addr":"4700 E Berry St","units":160},"geometry":{"type":"Point","coordinates":[-97.2534,32.71263]}},{"type":"Feature","properties":{"name":"Villa Lago Apartments","addr":"8201 Boat Club Rd","units":204},"geometry":{"type":"Point","coordinates":[-97.42786,32.87253]}},{"type":"Feature","properties":{"name":"Eagle's Point","addr":"8301 Boat Club Rd","units":240},"geometry":{"type":"Point","coordinates":[-97.42822,32.87359]}},{"type":"Feature","properties":{"name":"The Legends at Eagle Mountain Lake","addr":"9685 Boat Club Rd","units":208},"geometry":{"type":"Point","coordinates":[-97.45281,32.89692]}},{"type":"Feature","properties":{"name":"Tides at 5400","addr":"5400 Boca Raton Blvd","units":168},"geometry":{"type":"Point","coordinates":[-97.239,32.76366]}},{"type":"Feature","properties":{"name":"The Borough","addr":"5700 Boca Raton Blvd","units":209},"geometry":{"type":"Point","coordinates":[-97.23297,32.76377]}},{"type":"Feature","properties":{"name":"La Jolla Apartments","addr":"5816 Boca Raton Blvd","units":176},"geometry":{"type":"Point","coordinates":[-97.22935,32.76413]}},{"type":"Feature","properties":{"name":"Oak Hollow","addr":"5901 Boca Raton Blvd","units":176},"geometry":{"type":"Point","coordinates":[-97.22871,32.7672]}},{"type":"Feature","properties":{"name":"The Mason","addr":"6000 Boca Raton Blvd","units":170},"geometry":{"type":"Point","coordinates":[-97.22664,32.76702]}},{"type":"Feature","properties":{"name":"The Creek on Calloway","addr":"3830 Booth Calloway Rd","units":248},"geometry":{"type":"Point","coordinates":[-97.21182,32.82052]}},{"type":"Feature","properties":{"name":"Pointe on Calloway","addr":"200 N Booth Calloway Rd","units":214},"geometry":{"type":"Point","coordinates":[-97.21079,32.81273]}},{"type":"Feature","properties":{"name":"Olympus Stone Glen","addr":"300 Bourland Rd","units":216},"geometry":{"type":"Point","coordinates":[-97.24346,32.93826]}},{"type":"Feature","properties":{"name":"Olympus Waterford","addr":"400 Bourland Rd","units":187},"geometry":{"type":"Point","coordinates":[-97.24359,32.94042]}},{"type":"Feature","properties":{"name":"Evergreen at Keller","addr":"501 Bourland Rd","units":250},"geometry":{"type":"Point","coordinates":[-97.24197,32.94063]}},{"type":"Feature","properties":{"name":"Reata West Apartments","addr":"1133 Boyd Rd","units":224},"geometry":{"type":"Point","coordinates":[-97.54629,32.9148]}},{"type":"Feature","properties":{"name":"Tides on Green Oaks","addr":"711 Brentford Pl","units":188},"geometry":{"type":"Point","coordinates":[-97.10074,32.7854]}},{"type":"Feature","properties":{"name":"The Ryan","addr":"6051 Bridge St","units":200},"geometry":{"type":"Point","coordinates":[-97.22527,32.76127]}},{"type":"Feature","properties":{"name":"Village Creek Townhomes","addr":"2800 Briery Dr","units":184},"geometry":{"type":"Point","coordinates":[-97.23382,32.71773]}},{"type":"Feature","properties":{"name":"Willow & Wise","addr":"218 W Broadway Ave","units":250},"geometry":{"type":"Point","coordinates":[-97.32713,32.74187]}},{"type":"Feature","properties":{"name":"The Preserve at Turtle Creek","addr":"2500 Brown Blvd","units":192},"geometry":{"type":"Point","coordinates":[-97.06503,32.77406]}},{"type":"Feature","properties":{"name":"Tribecca Pointe","addr":"601 Brown Trl","units":175},"geometry":{"type":"Point","coordinates":[-97.16512,32.82049]}},{"type":"Feature","properties":{"name":"The Foundry Apartments","addr":"4900 Bryant Irvin Rd N","units":167},"geometry":{"type":"Point","coordinates":[-97.41244,32.71279]}},{"type":"Feature","properties":{"name":"The Hudson","addr":"6715 Buenos Aires Dr","units":240},"geometry":{"type":"Point","coordinates":[-97.23704,32.8491]}},{"type":"Feature","properties":{"name":"Jaxon Apartments","addr":"2502 Burney Oaks Ln","units":240},"geometry":{"type":"Point","coordinates":[-97.06392,32.77703]}},{"type":"Feature","properties":{"name":"Luna Vista","addr":"5925 Callaston Ln","units":236},"geometry":{"type":"Point","coordinates":[-97.22785,32.7644]}},{"type":"Feature","properties":{"name":"Martha's Villa","addr":"5901 S Calloway Dr","units":177},"geometry":{"type":"Point","coordinates":[-97.40967,32.76872]}},{"type":"Feature","properties":{"name":"The Stella","addr":"8222 Calmont Ave","units":200},"geometry":{"type":"Point","coordinates":[-97.45681,32.73489]}},{"type":"Feature","properties":{"name":"Aero Apartments","addr":"8300 Calmont Ave","units":200},"geometry":{"type":"Point","coordinates":[-97.45868,32.73593]}},{"type":"Feature","properties":{"name":"Wind River Apartments","addr":"8725 Calmont Ave","units":168},"geometry":{"type":"Point","coordinates":[-97.46981,32.73424]}},{"type":"Feature","properties":{"name":"Campus Apartments","addr":"4633 Campus Dr","units":224},"geometry":{"type":"Point","coordinates":[-97.29547,32.6789]}},{"type":"Feature","properties":{"name":"Center Place","addr":"3005 S Center St","units":194},"geometry":{"type":"Point","coordinates":[-97.10676,32.69575]}},{"type":"Feature","properties":{"name":"Arlington Hills","addr":"3200 S Center St","units":171},"geometry":{"type":"Point","coordinates":[-97.10893,32.69321]}},{"type":"Feature","properties":{"name":"Avanti on Central & Pipeline","addr":"805 Central Dr","units":195},"geometry":{"type":"Point","coordinates":[-97.13419,32.82291]}},{"type":"Feature","properties":{"name":"Summers Landing","addr":"3900 Centreport Dr","units":196},"geometry":{"type":"Point","coordinates":[-97.05528,32.8208]}},{"type":"Feature","properties":{"name":"Chatham Green Village","addr":"3532 Chatham Green Ln","units":234},"geometry":{"type":"Point","coordinates":[-97.11337,32.68501]}},{"type":"Feature","properties":{"name":"Tradition-Clearfork","addr":"5755 Clearfork Main St","units":202},"geometry":{"type":"Point","coordinates":[-97.40863,32.70741]}},{"type":"Feature","properties":{"name":"Western Hills","addr":"2933 Cliffridge Ln","units":200},"geometry":{"type":"Point","coordinates":[-97.47666,32.73318]}},{"type":"Feature","properties":{"name":"The Phoenix","addr":"429 College Ave","units":170},"geometry":{"type":"Point","coordinates":[-97.33439,32.73995]}},{"type":"Feature","properties":{"name":"Amelia Parc II","addr":"5301 Collett Little Rd","units":234},"geometry":{"type":"Point","coordinates":[-97.2429,32.67119]}},{"type":"Feature","properties":{"name":"The District on Collins","addr":"2910 S Collins St","units":228},"geometry":{"type":"Point","coordinates":[-97.09866,32.69887]}},{"type":"Feature","properties":{"name":"Ronan","addr":"3056 Commodore Dr","units":240},"geometry":{"type":"Point","coordinates":[-97.06073,32.68937]}},{"type":"Feature","properties":{"name":"Album Benbrook","addr":"8601 Cook Ranch Rd","units":179},"geometry":{"type":"Point","coordinates":[-97.46313,32.69286]}},{"type":"Feature","properties":{"name":"Estates at Team Ranch","addr":"8889 Cook Ranch Rd S","units":248},"geometry":{"type":"Point","coordinates":[-97.46493,32.69271]}},{"type":"Feature","properties":{"name":"Windsong Apartments","addr":"1600 Cooks Ln","units":188},"geometry":{"type":"Point","coordinates":[-97.18414,32.75578]}},{"type":"Feature","properties":{"name":"Cooper Park Apartments","addr":"812 S Cooper Square Cir","units":180},"geometry":{"type":"Point","coordinates":[-97.11711,32.71213]}},{"type":"Feature","properties":{"name":"Taylor Commons","addr":"5600 Cotswold Hills Dr","units":224},"geometry":{"type":"Point","coordinates":[-97.23693,32.7628]}},{"type":"Feature","properties":{"name":"Elliot Pioneer","addr":"2105 Cottonwood Club Rd","units":200},"geometry":{"type":"Point","coordinates":[-97.07287,32.71045]}},{"type":"Feature","properties":{"name":"Conservatory At Keller Town Center","addr":"200 Country Brook Dr","units":186},"geometry":{"type":"Point","coordinates":[-97.22362,32.93164]}},{"type":"Feature","properties":{"name":"Venue at Home Town","addr":"9012 Courtenay St","units":209},"geometry":{"type":"Point","coordinates":[-97.19264,32.85366]}},{"type":"Feature","properties":{"name":"Summer Lake Mobile Home Park","addr":"4225 S Cravens Rd","units":156},"geometry":{"type":"Point","coordinates":[-97.22642,32.70016]}},{"type":"Feature","properties":{"name":"Hometowne at Matador Ranch","addr":"8500 Crowley Rd","units":198},"geometry":{"type":"Point","coordinates":[-97.35068,32.62781]}},{"type":"Feature","properties":{"name":"Jennings Place","addr":"300 Crump St","units":172},"geometry":{"type":"Point","coordinates":[-97.32615,32.75845]}},{"type":"Feature","properties":{"name":"3 Thousand One Crystal Springs","addr":"3001 Crystal Springs St","units":152},"geometry":{"type":"Point","coordinates":[-97.1111,32.855]}},{"type":"Feature","properties":{"name":"Montage Southside","addr":"200 W Daggett Ave","units":179},"geometry":{"type":"Point","coordinates":[-97.32696,32.74268]}},{"type":"Feature","properties":{"name":"The Ridge/Parkdale Apartments","addr":"9211 Dale Lane Ct","units":246},"geometry":{"type":"Point","coordinates":[-97.4756,32.74985]}},{"type":"Feature","properties":{"name":"The Villas on Bear Creek","addr":"8009 Davis Blvd","units":240},"geometry":{"type":"Point","coordinates":[-97.20399,32.8945]}},{"type":"Feature","properties":{"name":"Ladera","addr":"2029 Dayton St","units":168},"geometry":{"type":"Point","coordinates":[-97.27051,32.78796]}},{"type":"Feature","properties":{"name":"Avilla Lakeridge","addr":"1121 Debbie Ln","units":170},"geometry":{"type":"Point","coordinates":[-97.08508,32.60709]}},{"type":"Feature","properties":{"name":"Watercrest at Mansfield","addr":"250 E Debbie Ln","units":211},"geometry":{"type":"Point","coordinates":[-97.13761,32.59505]}},{"type":"Feature","properties":{"name":"Villas di Lucca","addr":"1601 E Debbie Ln","units":176},"geometry":{"type":"Point","coordinates":[-97.11075,32.60927]}},{"type":"Feature","properties":{"name":"Residences of Diamond Hill","addr":"3601 Deen Rd","units":204},"geometry":{"type":"Point","coordinates":[-97.32758,32.8082]}},{"type":"Feature","properties":{"name":"Bear Creek Apartments","addr":"605 Del Paso St","units":221},"geometry":{"type":"Point","coordinates":[-97.09599,32.82777]}},{"type":"Feature","properties":{"name":"Parc Plaza","addr":"333 E Denton Dr","units":201},"geometry":{"type":"Point","coordinates":[-97.0779,32.84849]}},{"type":"Feature","properties":{"name":"Arlington Lakeside","addr":"3211 W Division St","units":245},"geometry":{"type":"Point","coordinates":[-97.16245,32.73563]}},{"type":"Feature","properties":{"name":"Palladium East Berry Street","addr":"2350 East Berry St","units":240},"geometry":{"type":"Point","coordinates":[-97.29279,32.70761]}},{"type":"Feature","properties":{"name":"Lofton Place","addr":"1601 Eastchase Pky","units":238},"geometry":{"type":"Point","coordinates":[-97.16736,32.75601]}},{"type":"Feature","properties":{"name":"Matlock Flats","addr":"710 Eden Rd","units":192},"geometry":{"type":"Point","coordinates":[-97.11636,32.63304]}},{"type":"Feature","properties":{"name":"Riverwalk Apartments","addr":"7412 Ederville Rd","units":224},"geometry":{"type":"Point","coordinates":[-97.19553,32.75643]}},{"type":"Feature","properties":{"name":"Steeplechase","addr":"7501 Ederville Rd","units":200},"geometry":{"type":"Point","coordinates":[-97.19426,32.75795]}},{"type":"Feature","properties":{"name":"Westdale Hills - Doral","addr":"1215 El Camino Real","units":228},"geometry":{"type":"Point","coordinates":[-97.14583,32.81973]}},{"type":"Feature","properties":{"name":"Westdale Hills Firestone","addr":"1701 El Camino Real","units":158},"geometry":{"type":"Point","coordinates":[-97.14658,32.81447]}},{"type":"Feature","properties":{"name":"The Depot","addr":"555 Elm St","units":211},"geometry":{"type":"Point","coordinates":[-97.32512,32.75669]}},{"type":"Feature","properties":{"name":"The Creek","addr":"7924 Emerald Crest Dr","units":168},"geometry":{"type":"Point","coordinates":[-97.45397,32.74321]}},{"type":"Feature","properties":{"name":"Emerald Park","addr":"8341 Emerald Hills Way","units":152},"geometry":{"type":"Point","coordinates":[-97.20285,32.84793]}},{"type":"Feature","properties":{"name":"The Pointe at Fair Oaks","addr":"301 Fair Oaks Blvd","units":208},"geometry":{"type":"Point","coordinates":[-97.08656,32.85227]}},{"type":"Feature","properties":{"name":"District 2308","addr":"2308 Fair Oaks Dr","units":240},"geometry":{"type":"Point","coordinates":[-97.0985,32.77402]}},{"type":"Feature","properties":{"name":"Falcon Lakes","addr":"6504 Falcon River Way","units":248},"geometry":{"type":"Point","coordinates":[-97.1849,32.64317]}},{"type":"Feature","properties":{"name":"Rise West Arlington","addr":"3601 Fielders Glen Dr","units":220},"geometry":{"type":"Point","coordinates":[-97.13423,32.68844]}},{"type":"Feature","properties":{"name":"Album Mansfield","addr":"1350 FM 157","units":190},"geometry":{"type":"Point","coordinates":[-97.14833,32.58519]}},{"type":"Feature","properties":{"name":"Westmount at Forest Oaks","addr":"2408 Forest Oaks Ln","units":164},"geometry":{"type":"Point","coordinates":[-97.06612,32.7731]}},{"type":"Feature","properties":{"name":"Arbors on Forest Ridge Apartments","addr":"2200 Forest Ridge Dr","units":210},"geometry":{"type":"Point","coordinates":[-97.14197,32.84345]}},{"type":"Feature","properties":{"name":"Misty Hollow Apartments","addr":"2506 N Forty Cir","units":176},"geometry":{"type":"Point","coordinates":[-97.06398,32.77598]}},{"type":"Feature","properties":{"name":"Parmore Fossil Creek","addr":"5401 Fossil Creek Blvd","units":220},"geometry":{"type":"Point","coordinates":[-97.28291,32.8448]}},{"type":"Feature","properties":{"name":"Hunt Club","addr":"1001 Fuller Wiser Rd","units":204},"geometry":{"type":"Point","coordinates":[-97.07364,32.84956]}},{"type":"Feature","properties":{"name":"Stonebridge at Bear Creek","addr":"2250 Fuller Wiser Rd","units":184},"geometry":{"type":"Point","coordinates":[-97.07306,32.86884]}},{"type":"Feature","properties":{"name":"The Hub","addr":"2604 Furrs St","units":168},"geometry":{"type":"Point","coordinates":[-97.0965,32.77825]}},{"type":"Feature","properties":{"name":"The Gin Mill","addr":"8200 Glenn Day Dr","units":243},"geometry":{"type":"Point","coordinates":[-97.08263,32.60823]}},{"type":"Feature","properties":{"name":"Parkwyn Apartments","addr":"4401 Glenview Ct","units":241},"geometry":{"type":"Point","coordinates":[-97.20652,32.82489]}},{"type":"Feature","properties":{"name":"Waterford on the Green Apartments","addr":"6228 Glenview Dr","units":188},"geometry":{"type":"Point","coordinates":[-97.25032,32.8266]}},{"type":"Feature","properties":{"name":"Crestbrook Apartments","addr":"400 SW Gordon St","units":177},"geometry":{"type":"Point","coordinates":[-97.33348,32.54142]}},{"type":"Feature","properties":{"name":"Trinity Highline","addr":"1101 Gounah St","units":172},"geometry":{"type":"Point","coordinates":[-97.32876,32.76462]}},{"type":"Feature","properties":{"name":"The Park at LeBlanc","addr":"6250 Granbury Cut Off St","units":168},"geometry":{"type":"Point","coordinates":[-97.40792,32.65643]}},{"type":"Feature","properties":{"name":"Evergreen At Hulen Bend","addr":"6301 Granbury Cut-Off","units":237},"geometry":{"type":"Point","coordinates":[-97.40566,32.65607]}},{"type":"Feature","properties":{"name":"Bexley Landing","addr":"901 Grange Hall Dr","units":200},"geometry":{"type":"Point","coordinates":[-97.06693,32.84218]}},{"type":"Feature","properties":{"name":"Avilla Traditions","addr":"3500 S Great Southwest Pky","units":218},"geometry":{"type":"Point","coordinates":[-97.04537,32.68628]}},{"type":"Feature","properties":{"name":"Oakley","addr":"501 Green Oaks Ct","units":196},"geometry":{"type":"Point","coordinates":[-97.1123,32.7849]}},{"type":"Feature","properties":{"name":"The Heights","addr":"1901 N Green Oaks Blvd","units":246},"geometry":{"type":"Point","coordinates":[-97.07924,32.78048]}},{"type":"Feature","properties":{"name":"Liv On The Green","addr":"811 NE Green Oaks Blvd","units":205},"geometry":{"type":"Point","coordinates":[-97.09802,32.78508]}},{"type":"Feature","properties":{"name":"Belmont Estates","addr":"901 E Greenway Glen Dr","units":224},"geometry":{"type":"Point","coordinates":[-97.11726,32.7582]}},{"type":"Feature","properties":{"name":"West Chase Apartments","addr":"2900 Gunnison Trl","units":160},"geometry":{"type":"Point","coordinates":[-97.46058,32.73254]}},{"type":"Feature","properties":{"name":"The Vine South","addr":"2551 Hall Johnson Rd","units":220},"geometry":{"type":"Point","coordinates":[-97.10397,32.89266]}},{"type":"Feature","properties":{"name":"Shadow Ridge","addr":"4001 Hamilton Cir","units":172},"geometry":{"type":"Point","coordinates":[-97.16942,32.71053]}},{"type":"Feature","properties":{"name":"The Audrey","addr":"3361 Harmon Rd","units":211},"geometry":{"type":"Point","coordinates":[-97.08464,32.54078]}},{"type":"Feature","properties":{"name":"Solay Fort Worth","addr":"8900 Harmon Rd","units":192},"geometry":{"type":"Point","coordinates":[-97.33012,32.90227]}},{"type":"Feature","properties":{"name":"Harmon Seniors Villas","addr":"12755 Harmon Rd","units":160},"geometry":{"type":"Point","coordinates":[-97.32434,32.93185]}},{"type":"Feature","properties":{"name":"Solea Tavolo Park","addr":"7545 Harris Pky","units":184},"geometry":{"type":"Point","coordinates":[-97.41813,32.63913]}},{"type":"Feature","properties":{"name":"Lasater Ranch","addr":"13424 Hartland St","units":158},"geometry":{"type":"Point","coordinates":[-97.383,32.56313]}},{"type":"Feature","properties":{"name":"Copper Canyon Apartments","addr":"2400 Harwood Rd","units":168},"geometry":{"type":"Point","coordinates":[-97.12872,32.85162]}},{"type":"Feature","properties":{"name":"Huntington Glen","addr":"2900 Harwood Rd","units":224},"geometry":{"type":"Point","coordinates":[-97.11837,32.85136]}},{"type":"Feature","properties":{"name":"Oakwood Condominiums","addr":"3800 Harwood Rd","units":153},"geometry":{"type":"Point","coordinates":[-97.10399,32.85132]}},{"type":"Feature","properties":{"name":"The Fleetwood","addr":"7913 Harwood Rd","units":194},"geometry":{"type":"Point","coordinates":[-97.21039,32.84296]}},{"type":"Feature","properties":{"name":"Broadway Chapter","addr":"401 Hemphill St","units":242},"geometry":{"type":"Point","coordinates":[-97.33114,32.74036]}},{"type":"Feature","properties":{"name":"Worthington Point","addr":"12301 Hemphill St","units":248},"geometry":{"type":"Point","coordinates":[-97.32706,32.57905]}},{"type":"Feature","properties":{"name":"The Henderson","addr":"1000 Henderson St","units":194},"geometry":{"type":"Point","coordinates":[-97.33891,32.7484]}},{"type":"Feature","properties":{"name":"Heartis MidCities","addr":"2308 Highway 121","units":178},"geometry":{"type":"Point","coordinates":[-97.11241,32.84742]}},{"type":"Feature","properties":{"name":"Harwood Hills Apartments","addr":"2452 Highway 121","units":241},"geometry":{"type":"Point","coordinates":[-97.11072,32.84983]}},{"type":"Feature","properties":{"name":"Reagan at Bear Creek","addr":"2001 Highway 360","units":216},"geometry":{"type":"Point","coordinates":[-97.06547,32.86218]}},{"type":"Feature","properties":{"name":"Parkside on the Creek","addr":"700 Hill Trail Dr","units":186},"geometry":{"type":"Point","coordinates":[-97.07036,32.86546]}},{"type":"Feature","properties":{"name":"Westcliff Park","addr":"3481 S Hills Ave","units":184},"geometry":{"type":"Point","coordinates":[-97.36701,32.69599]}},{"type":"Feature","properties":{"name":"Cedar Bend Apartments","addr":"2606 Holly Brook Ln","units":222},"geometry":{"type":"Point","coordinates":[-97.06506,32.78042]}},{"type":"Feature","properties":{"name":"Holly Park","addr":"112 Holly Park Dr","units":240},"geometry":{"type":"Point","coordinates":[-97.10814,32.69202]}},{"type":"Feature","properties":{"name":"Chisholm Springs","addr":"148 Holster Hollow Rd","units":248},"geometry":{"type":"Point","coordinates":[-97.4421,32.99522]}},{"type":"Feature","properties":{"name":"Arlington Oaks Apartments","addr":"1111 Honeysuckle Way","units":202},"geometry":{"type":"Point","coordinates":[-97.09394,32.75641]}},{"type":"Feature","properties":{"name":"Skyline Prairie Homes","addr":"8220 Horseman Dr","units":230},"geometry":{"type":"Point","coordinates":[-97.331,32.88798]}},{"type":"Feature","properties":{"name":"Terraces of Marine Creek","addr":"4700 Huffines Blvd","units":186},"geometry":{"type":"Point","coordinates":[-97.40666,32.82372]}},{"type":"Feature","properties":{"name":"4000 Hulen Urban Apartment Homes","addr":"4000 Hulen St","units":240},"geometry":{"type":"Point","coordinates":[-97.38742,32.72155]}},{"type":"Feature","properties":{"name":"Southern Oaks","addr":"5500 S Hulen St","units":248},"geometry":{"type":"Point","coordinates":[-97.4021,32.66926]}},{"type":"Feature","properties":{"name":"Candletree","addr":"7425 S Hulen St","units":216},"geometry":{"type":"Point","coordinates":[-97.39142,32.63575]}},{"type":"Feature","properties":{"name":"Shadow Creek Apartments","addr":"311 S Industrial Blvd","units":193},"geometry":{"type":"Point","coordinates":[-97.09834,32.83268]}},{"type":"Feature","properties":{"name":"The Hills at Iron Horse","addr":"6424 Iron Horse Blvd","units":238},"geometry":{"type":"Point","coordinates":[-97.24543,32.84514]}},{"type":"Feature","properties":{"name":"Times Square On the Hill","addr":"2100 Jacocks Ln","units":200},"geometry":{"type":"Point","coordinates":[-97.35199,32.67076]}},{"type":"Feature","properties":{"name":"South 400","addr":"400 S Jennings Ave","units":209},"geometry":{"type":"Point","coordinates":[-97.33022,32.74062]}},{"type":"Feature","properties":{"name":"Homes of Parker Commons","addr":"1015 S Jennings Ave","units":192},"geometry":{"type":"Point","coordinates":[-97.32939,32.73398]}},{"type":"Feature","properties":{"name":"Silver Leaf Villas","addr":"8515 John T White Rd","units":176},"geometry":{"type":"Point","coordinates":[-97.16965,32.76601]}},{"type":"Feature","properties":{"name":"Villas at Alameda","addr":"7000 John T. White Rd","units":206},"geometry":{"type":"Point","coordinates":[-97.20775,32.76468]}},{"type":"Feature","properties":{"name":"Album Keller Ranch","addr":"5640 Keller Ranch Rd","units":180},"geometry":{"type":"Point","coordinates":[-97.26025,32.93608]}},{"type":"Feature","properties":{"name":"Tides at Meadowbrook","addr":"525 King George Dr","units":154},"geometry":{"type":"Point","coordinates":[-97.24256,32.76607]}},{"type":"Feature","properties":{"name":"Savoy Apartments","addr":"7501 Kingswood Dr","units":152},"geometry":{"type":"Point","coordinates":[-97.39949,32.63804]}},{"type":"Feature","properties":{"name":"Cedar Ridge Townhomes","addr":"2082 Knoll Crest Dr","units":168},"geometry":{"type":"Point","coordinates":[-97.07583,32.68481]}},{"type":"Feature","properties":{"name":"Summerstone Apartment Homes","addr":"2301 L Don Dodson Dr","units":192},"geometry":{"type":"Point","coordinates":[-97.12863,32.84193]}},{"type":"Feature","properties":{"name":"Kensington Station","addr":"2401 L Don Dodson Dr","units":238},"geometry":{"type":"Point","coordinates":[-97.12559,32.842]}},{"type":"Feature","properties":{"name":"Chisholm Trail Townhomes","addr":"8900 La Palma Dr","units":168},"geometry":{"type":"Point","coordinates":[-97.47306,32.73478]}},{"type":"Feature","properties":{"name":"Countrywood","addr":"525 E Lamar Blvd","units":176},"geometry":{"type":"Point","coordinates":[-97.10642,32.76342]}},{"type":"Feature","properties":{"name":"6 Eleven Lamar Apartments","addr":"611 E Lamar Blvd","units":200},"geometry":{"type":"Point","coordinates":[-97.10393,32.76372]}},{"type":"Feature","properties":{"name":"Lancaster Apartments","addr":"5200 E Lancaster Ave","units":199},"geometry":{"type":"Point","coordinates":[-97.24322,32.7399]}},{"type":"Feature","properties":{"name":"Aden Crest Apartments","addr":"2200 Lands End Blvd","units":202},"geometry":{"type":"Point","coordinates":[-97.42877,32.73788]}},{"type":"Feature","properties":{"name":"The Villas at Sierra Vista","addr":"2819 Las Vegas Trl","units":227},"geometry":{"type":"Point","coordinates":[-97.46628,32.73534]}},{"type":"Feature","properties":{"name":"El Rancho Escondido Apartments","addr":"2840 Las Vegas Trl","units":154},"geometry":{"type":"Point","coordinates":[-97.46682,32.73394]}},{"type":"Feature","properties":{"name":"Sierra Hermosa Apartments","addr":"3254 Las Vegas Trl","units":168},"geometry":{"type":"Point","coordinates":[-97.46624,32.72681]}},{"type":"Feature","properties":{"name":"Bella Terra","addr":"1823 S Las Vegas Trl","units":200},"geometry":{"type":"Point","coordinates":[-97.46934,32.74156]}},{"type":"Feature","properties":{"name":"Westlake Gardens","addr":"1823 S Las Vegas Trl","units":180},"geometry":{"type":"Point","coordinates":[-97.46745,32.74206]}},{"type":"Feature","properties":{"name":"Woodcreek","addr":"2717 Lawrence Rd","units":200},"geometry":{"type":"Point","coordinates":[-97.09652,32.78333]}},{"type":"Feature","properties":{"name":"The Jones","addr":"2109 Lincoln Dr","units":224},"geometry":{"type":"Point","coordinates":[-97.10474,32.7678]}},{"type":"Feature","properties":{"name":"Longhorn Crossing","addr":"1101 Longhorn Rd","units":240},"geometry":{"type":"Point","coordinates":[-97.38381,32.84768]}},{"type":"Feature","properties":{"name":"500 Flats","addr":"500 E Loop 820","units":248},"geometry":{"type":"Point","coordinates":[-97.21379,32.77237]}},{"type":"Feature","properties":{"name":"Flats at Brentwood","addr":"2100 E Loop 820","units":180},"geometry":{"type":"Point","coordinates":[-97.22228,32.74822]}},{"type":"Feature","properties":{"name":"Lake Arlington Ranch","addr":"5045 E Loop 820 S","units":171},"geometry":{"type":"Point","coordinates":[-97.23461,32.68483]}},{"type":"Feature","properties":{"name":"Amelia Parc","addr":"6100 E Loop 820 S","units":196},"geometry":{"type":"Point","coordinates":[-97.24295,32.66925]}},{"type":"Feature","properties":{"name":"Patriot Pointe","addr":"2101 SE Loop 820","units":220},"geometry":{"type":"Point","coordinates":[-97.30351,32.67053]}},{"type":"Feature","properties":{"name":"Spanish Hacienda","addr":"1212 Lowden Cir","units":154},"geometry":{"type":"Point","coordinates":[-97.31147,32.70968]}},{"type":"Feature","properties":{"name":"The Julian at South Pointe","addr":"1300 Lowe Rd","units":225},"geometry":{"type":"Point","coordinates":[-97.08577,32.54176]}},{"type":"Feature","properties":{"name":"The Bowen of Arlington","addr":"2513 Lynnwood Dr","units":187},"geometry":{"type":"Point","coordinates":[-97.15069,32.72523]}},{"type":"Feature","properties":{"name":"Stone Canyon","addr":"2121 Madison Dr","units":222},"geometry":{"type":"Point","coordinates":[-97.09882,32.77005]}},{"type":"Feature","properties":{"name":"Mag & May","addr":"315 W Magnolia Ave","units":240},"geometry":{"type":"Point","coordinates":[-97.32853,32.7303]}},{"type":"Feature","properties":{"name":"Bottle House on Main","addr":"650 S Main St","units":227},"geometry":{"type":"Point","coordinates":[-97.3265,32.73754]}},{"type":"Feature","properties":{"name":"Marine Creek","addr":"4500 Marine Creek Pky","units":248},"geometry":{"type":"Point","coordinates":[-97.38265,32.82366]}},{"type":"Feature","properties":{"name":"Reserve at Mayfield","addr":"1950 E Mayfield Rd","units":220},"geometry":{"type":"Point","coordinates":[-97.07746,32.69043]}},{"type":"Feature","properties":{"name":"Mariposa at Spring Hollow","addr":"451 E McLeroy Blvd","units":194},"geometry":{"type":"Point","coordinates":[-97.3575,32.86131]}},{"type":"Feature","properties":{"name":"Wood Meadow Apartments","addr":"6897 Meadow Crest Dr","units":222},"geometry":{"type":"Point","coordinates":[-97.23434,32.84585]}},{"type":"Feature","properties":{"name":"Southpoint Villas","addr":"5700 Median Way","units":228},"geometry":{"type":"Point","coordinates":[-97.1946,32.65603]}},{"type":"Feature","properties":{"name":"Ridgewood Preserve","addr":"1000 Mill Crossing Pl","units":184},"geometry":{"type":"Point","coordinates":[-97.0962,32.7797]}},{"type":"Feature","properties":{"name":"The Biltmore","addr":"2300 Misty Ridge Cir","units":186},"geometry":{"type":"Point","coordinates":[-97.0998,32.77449]}},{"type":"Feature","properties":{"name":"La Casita Manufactured Home Community","addr":"7800 Mockingbird Ln","units":231},"geometry":{"type":"Point","coordinates":[-97.20748,32.85269]}},{"type":"Feature","properties":{"name":"Westdale Hills - Muirfield Village","addr":"1249 Monterrey Blvd","units":236},"geometry":{"type":"Point","coordinates":[-97.1401,32.8186]}},{"type":"Feature","properties":{"name":"Westdale Hills La Costa","addr":"1308 Monterrey Blvd","units":207},"geometry":{"type":"Point","coordinates":[-97.1418,32.81823]}},{"type":"Feature","properties":{"name":"Westdale Hills - Bonaventure","addr":"1409 Monterrey Blvd","units":212},"geometry":{"type":"Point","coordinates":[-97.14122,32.81761]}},{"type":"Feature","properties":{"name":"Tuscany Apartments","addr":"1401 Morrison Dr","units":240},"geometry":{"type":"Point","coordinates":[-97.18957,32.75863]}},{"type":"Feature","properties":{"name":"Grayson Ridge Apartment Homes","addr":"6901 NE Loop 820","units":240},"geometry":{"type":"Point","coordinates":[-97.23236,32.84296]}},{"type":"Feature","properties":{"name":"Woodhill","addr":"9201 N Normandale St","units":240},"geometry":{"type":"Point","coordinates":[-97.47834,32.73308]}},{"type":"Feature","properties":{"name":"Saddlehorn Vista","addr":"2925 W Normandale St","units":192},"geometry":{"type":"Point","coordinates":[-97.47832,32.73062]}},{"type":"Feature","properties":{"name":"Crescent Oaks","addr":"3001 W Normandale St","units":220},"geometry":{"type":"Point","coordinates":[-97.47817,32.72901]}},{"type":"Feature","properties":{"name":"Rise Oak Creek","addr":"1950 Oak Creek Ln","units":176},"geometry":{"type":"Point","coordinates":[-97.13811,32.83449]}},{"type":"Feature","properties":{"name":"Providence at Prairie Oaks","addr":"2700 Oak Moor","units":206},"geometry":{"type":"Point","coordinates":[-97.06141,32.7334]}},{"type":"Feature","properties":{"name":"Parkview Village","addr":"952 Oakhurst Scenic Dr","units":162},"geometry":{"type":"Point","coordinates":[-97.31341,32.7763]}},{"type":"Feature","properties":{"name":"Canopy Homes at Ventana","addr":"10449 Orchard Way","units":188},"geometry":{"type":"Point","coordinates":[-97.50817,32.66124]}},{"type":"Feature","properties":{"name":"The Destino","addr":"2815 Osler Dr","units":192},"geometry":{"type":"Point","coordinates":[-97.05306,32.73034]}},{"type":"Feature","properties":{"name":"The Watson","addr":"3090 Outlet Pky","units":247},"geometry":{"type":"Point","coordinates":[-97.06118,32.68264]}},{"type":"Feature","properties":{"name":"The Barcelona on Chisholm Trail","addr":"5101 Overton Ridge Blvd","units":248},"geometry":{"type":"Point","coordinates":[-97.40504,32.67594]}},{"type":"Feature","properties":{"name":"Overton Park Townhomes","addr":"5501 Overton Ridge Blvd","units":216},"geometry":{"type":"Point","coordinates":[-97.4126,32.67528]}},{"type":"Feature","properties":{"name":"The Trails Apartments","addr":"4912 Paces Trail","units":208},"geometry":{"type":"Point","coordinates":[-97.21567,32.66712]}},{"type":"Feature","properties":{"name":"Addison Park Apartments","addr":"4901 Pacific Dr","units":224},"geometry":{"type":"Point","coordinates":[-97.18395,32.64176]}},{"type":"Feature","properties":{"name":"Windscape Gardens","addr":"3099 Parham Dr","units":154},"geometry":{"type":"Point","coordinates":[-97.0582,32.6898]}},{"type":"Feature","properties":{"name":"Spanish Oaks","addr":"3025 E Park Row","units":200},"geometry":{"type":"Point","coordinates":[-97.05441,32.72168]}},{"type":"Feature","properties":{"name":"The Arts at Park Place","addr":"1301 Park Place Blvd","units":170},"geometry":{"type":"Point","coordinates":[-97.20154,32.82083]}},{"type":"Feature","properties":{"name":"Cottages At Bedford","addr":"2000 Park Place Blvd","units":168},"geometry":{"type":"Point","coordinates":[-97.12666,32.83963]}},{"type":"Feature","properties":{"name":"Creek on Park Place Apartments","addr":"2001 Park Place Blvd","units":220},"geometry":{"type":"Point","coordinates":[-97.12791,32.84084]}},{"type":"Feature","properties":{"name":"Hendrix","addr":"3020 E Park Row Dr","units":248},"geometry":{"type":"Point","coordinates":[-97.05466,32.71963]}},{"type":"Feature","properties":{"name":"Timberlake Villas","addr":"3120 E Park Row Dr","units":201},"geometry":{"type":"Point","coordinates":[-97.05247,32.72023]}},{"type":"Feature","properties":{"name":"The Junction","addr":"3201 E Park Row Dr","units":205},"geometry":{"type":"Point","coordinates":[-97.05068,32.72157]}},{"type":"Feature","properties":{"name":"ParkVista Townhomes","addr":"6728 Park Vista Blvd","units":212},"geometry":{"type":"Point","coordinates":[-97.26467,32.86619]}},{"type":"Feature","properties":{"name":"Willow Terrace","addr":"5429 Parker Henderson Rd","units":227},"geometry":{"type":"Point","coordinates":[-97.25512,32.67854]}},{"type":"Feature","properties":{"name":"Arbors of Central Park","addr":"2701 Parkview Ln","units":192},"geometry":{"type":"Point","coordinates":[-97.12246,32.83127]}},{"type":"Feature","properties":{"name":"Wellesley Park","addr":"365 E Pecan St","units":199},"geometry":{"type":"Point","coordinates":[-97.16292,32.81933]}},{"type":"Feature","properties":{"name":"Glen Rose Park","addr":"745 E Pecan St","units":236},"geometry":{"type":"Point","coordinates":[-97.15746,32.8193]}},{"type":"Feature","properties":{"name":"Siddons Place Apartments","addr":"250 Pennsylvania Ave","units":152},"geometry":{"type":"Point","coordinates":[-97.32866,32.73828]}},{"type":"Feature","properties":{"name":"Parkland Pointe","addr":"907 Pinion Dr","units":250},"geometry":{"type":"Point","coordinates":[-97.12377,32.64619]}},{"type":"Feature","properties":{"name":"Pioneer Creek Townhomes","addr":"600 W Pioneer Pky","units":213},"geometry":{"type":"Point","coordinates":[-97.11429,32.70791]}},{"type":"Feature","properties":{"name":"Town Village Crossing","addr":"1250 W Pioneer Pky","units":215},"geometry":{"type":"Point","coordinates":[-97.1255,32.7077]}},{"type":"Feature","properties":{"name":"Current at the Grid","addr":"724 Polk Dr","units":192},"geometry":{"type":"Point","coordinates":[-97.10245,32.76608]}},{"type":"Feature","properties":{"name":"Post Oak East Apartments","addr":"3888 Post Oak Blvd","units":246},"geometry":{"type":"Point","coordinates":[-97.06698,32.8195]}},{"type":"Feature","properties":{"name":"Prairie Ranch","addr":"4950 Prairie Dr","units":176},"geometry":{"type":"Point","coordinates":[-97.05909,32.65234]}},{"type":"Feature","properties":{"name":"Alleia at Presidio","addr":"2028 Presidio Vista Dr","units":231},"geometry":{"type":"Point","coordinates":[-97.33085,32.90461]}},{"type":"Feature","properties":{"name":"Tides on Boca Raton North","addr":"708 Quail Wood Ln","units":200},"geometry":{"type":"Point","coordinates":[-97.225,32.76948]}},{"type":"Feature","properties":{"name":"The Union at River East","addr":"2900 Race St","units":192},"geometry":{"type":"Point","coordinates":[-97.30546,32.77287]}},{"type":"Feature","properties":{"name":"Ranch Three0Five","addr":"305 Ranch Dr","units":226},"geometry":{"type":"Point","coordinates":[-97.10884,32.67113]}},{"type":"Feature","properties":{"name":"Tides on Randol West","addr":"8925 Randol Mill Rd","units":208},"geometry":{"type":"Point","coordinates":[-97.16035,32.76226]}},{"type":"Feature","properties":{"name":"Stadium 700","addr":"700-712 E Randol Mill Rd","units":184},"geometry":{"type":"Point","coordinates":[-97.09909,32.74877]}},{"type":"Feature","properties":{"name":"Blakely","addr":"1908 Randy Snow Rd","units":192},"geometry":{"type":"Point","coordinates":[-97.09006,32.76517]}},{"type":"Feature","properties":{"name":"Mercer Park","addr":"2014 Remington Dr","units":248},"geometry":{"type":"Point","coordinates":[-97.06841,32.71355]}},{"type":"Feature","properties":{"addr":"3000 Renaissance Sq","units":240},"geometry":{"type":"Point","coordinates":[-97.28038,32.71156]}},{"type":"Feature","properties":{"name":"The Reserve at Village Creek","addr":"444 E Renfro St","units":191},"geometry":{"type":"Point","coordinates":[-97.31195,32.54229]}},{"type":"Feature","properties":{"name":"Palm House","addr":"3501 Renzel Blvd","units":155},"geometry":{"type":"Point","coordinates":[-97.47419,32.72089]}},{"type":"Feature","properties":{"name":"Renaissance Gardens","addr":"2201 Ridgmar Blvd","units":214},"geometry":{"type":"Point","coordinates":[-97.42465,32.73896]}},{"type":"Feature","properties":{"name":"Avana River Park","addr":"3450 River Park Dr","units":248},"geometry":{"type":"Point","coordinates":[-97.42455,32.70084]}},{"type":"Feature","properties":{"name":"The Retreat at River Ranch","addr":"4850 River Ranch Blvd","units":248},"geometry":{"type":"Point","coordinates":[-97.40418,32.67858]}},{"type":"Feature","properties":{"name":"Rio Apartments","addr":"3500 Riverside Dr","units":184},"geometry":{"type":"Point","coordinates":[-97.30599,32.70001]}},{"type":"Feature","properties":{"name":"Riverside Villas Apartments","addr":"8828 N Riverside Dr","units":192},"geometry":{"type":"Point","coordinates":[-97.30576,32.90127]}},{"type":"Feature","properties":{"name":"Legacy Riverside Senior Living Community","addr":"8050 N Riverside Rd","units":175},"geometry":{"type":"Point","coordinates":[-97.30524,32.88657]}},{"type":"Feature","properties":{"name":"Riverside Apartments","addr":"6600 Rivertrail Cir","units":188},"geometry":{"type":"Point","coordinates":[-97.18457,32.64268]}},{"type":"Feature","properties":{"name":"Crossroads at Arlington","addr":"903 Road To Six Flags W","units":216},"geometry":{"type":"Point","coordinates":[-97.11989,32.75771]}},{"type":"Feature","properties":{"name":"The Valley at Cobb Park","addr":"1701 E Robert St","units":168},"geometry":{"type":"Point","coordinates":[-97.30167,32.71524]}},{"type":"Feature","properties":{"name":"Apex Apartments","addr":"5320 E Rosedale St","units":152},"geometry":{"type":"Point","coordinates":[-97.24016,32.73013]}},{"type":"Feature","properties":{"name":"Lawson","addr":"5608 Royal Ln","units":166},"geometry":{"type":"Point","coordinates":[-97.41667,32.6935]}},{"type":"Feature","properties":{"name":"Haven NRH Apartments","addr":"4205 Rufe Snow Dr","units":156},"geometry":{"type":"Point","coordinates":[-97.23925,32.82659]}},{"type":"Feature","properties":{"name":"Running Brook","addr":"1519 Running Brook Dr","units":232},"geometry":{"type":"Point","coordinates":[-97.05675,32.71832]}},{"type":"Feature","properties":{"name":"Ashton Apartment Homes","addr":"681 N Saginaw Blvd","units":152},"geometry":{"type":"Point","coordinates":[-97.3741,32.86845]}},{"type":"Feature","properties":{"name":"Spring Glen Apartments","addr":"3200 Saint Juliet St","units":176},"geometry":{"type":"Point","coordinates":[-97.363,32.75836]}},{"type":"Feature","properties":{"name":"Western Station Apartments","addr":"6700 Sandshell Blvd","units":202},"geometry":{"type":"Point","coordinates":[-97.30933,32.86252]}},{"type":"Feature","properties":{"name":"Kessler Apartments","addr":"6761 Sandshell Blvd","units":228},"geometry":{"type":"Point","coordinates":[-97.31102,32.86378]}},{"type":"Feature","properties":{"name":"Buena Vista Apartments","addr":"3101 Sappington Pl","units":170},"geometry":{"type":"Point","coordinates":[-97.43282,32.72945]}},{"type":"Feature","properties":{"name":"Cobblestone Apartments","addr":"8201 Sartain Dr","units":220},"geometry":{"type":"Point","coordinates":[-97.17527,32.76669]}},{"type":"Feature","properties":{"name":"Laurels of Sendera","addr":"5030 Savannah Club Dr","units":232},"geometry":{"type":"Point","coordinates":[-97.21615,32.66552]}},{"type":"Feature","properties":{"name":"Overture River District","addr":"4925 Scott Rd","units":198},"geometry":{"type":"Point","coordinates":[-97.39672,32.75394]}},{"type":"Feature","properties":{"name":"Sedona Village Senior Living","addr":"2800 Sedona Ranch Dr","units":172},"geometry":{"type":"Point","coordinates":[-97.31802,32.8569]}},{"type":"Feature","properties":{"name":"Southgate Manor Apartments","addr":"1200 E Seminary Dr","units":158},"geometry":{"type":"Point","coordinates":[-97.31168,32.6842]}},{"type":"Feature","properties":{"name":"Waters Park","addr":"1401 Shady Ln","units":168},"geometry":{"type":"Point","coordinates":[-97.14583,32.84721]}},{"type":"Feature","properties":{"name":"Summit on the Lake","addr":"6555 Shady Oaks Manor Dr","units":198},"geometry":{"type":"Point","coordinates":[-97.42768,32.80213]}},{"type":"Feature","properties":{"name":"Oakchase Apartment Homes","addr":"4924 Sigmond Dr","units":236},"geometry":{"type":"Point","coordinates":[-97.21338,32.6671]}},{"type":"Feature","properties":{"name":"Sterling Crest Apartments","addr":"7001 Silber Rd","units":208},"geometry":{"type":"Point","coordinates":[-97.21834,32.66763]}},{"type":"Feature","properties":{"name":"The Spring at Silverton","addr":"3850 Silverton Cir","units":162},"geometry":{"type":"Point","coordinates":[-97.37661,32.63515]}},{"type":"Feature","properties":{"name":"Linwood Square","addr":"3201 Sondra Dr","units":200},"geometry":{"type":"Point","coordinates":[-97.36455,32.75647]}},{"type":"Feature","properties":{"name":"Westdale Hills Sawgrass","addr":"1401 Sotogrande Blvd","units":228},"geometry":{"type":"Point","coordinates":[-97.14018,32.81543]}},{"type":"Feature","properties":{"name":"Westdale Hills Augusta Apartments","addr":"1736 Sotogrande Blvd","units":233},"geometry":{"type":"Point","coordinates":[-97.14091,32.81676]}},{"type":"Feature","properties":{"name":"Legacy Oaks of Azle Senior Living","addr":"1364 Southeast Pky","units":200},"geometry":{"type":"Point","coordinates":[-97.52694,32.87038]}},{"type":"Feature","properties":{"name":"The Mark At 2600","addr":"2624 Southern Hills Blvd","units":250},"geometry":{"type":"Point","coordinates":[-97.06317,32.78214]}},{"type":"Feature","properties":{"name":"Forena Revelstoke","addr":"950 Spanish Needle Trl","units":209},"geometry":{"type":"Point","coordinates":[-97.346,32.91465]}},{"type":"Feature","properties":{"name":"Avilla Reserve","addr":"1104 State Highway 114","units":227},"geometry":{"type":"Point","coordinates":[-97.33699,33.03349]}},{"type":"Feature","properties":{"name":"Oaks 55","addr":"2350 State Highway 121","units":151},"geometry":{"type":"Point","coordinates":[-97.09913,32.87034]}},{"type":"Feature","properties":{"name":"Mansions of Mansfield","addr":"400 N State Highway 360","units":208},"geometry":{"type":"Point","coordinates":[-97.0808,32.57217]}},{"type":"Feature","properties":{"name":"Rush Creek","addr":"1200 W Sublett Rd","units":248},"geometry":{"type":"Point","coordinates":[-97.13164,32.64689]}},{"type":"Feature","properties":{"name":"The Trails at Summer Creek","addr":"9069 Summer Creek Dr","units":240},"geometry":{"type":"Point","coordinates":[-97.40662,32.60976]}},{"type":"Feature","properties":{"name":"Summercrest at Burleson","addr":"1320 NW Summercrest Blvd","units":240},"geometry":{"type":"Point","coordinates":[-97.36119,32.55185]}},{"type":"Feature","properties":{"name":"Heights of Benbrook","addr":"9500 Summit Dr","units":164},"geometry":{"type":"Point","coordinates":[-97.47316,32.67481]}},{"type":"Feature","properties":{"name":"Tall Timbers","addr":"501 Sycamore Ln","units":216},"geometry":{"type":"Point","coordinates":[-97.07697,32.85684]}},{"type":"Feature","properties":{"name":"Willow Glen Apartments","addr":"1301 Sycamore School Rd","units":168},"geometry":{"type":"Point","coordinates":[-97.33834,32.63479]}},{"type":"Feature","properties":{"name":"Sycamore Pointe Apartments","addr":"2201 Sycamore School Rd","units":168},"geometry":{"type":"Point","coordinates":[-97.3531,32.63378]}},{"type":"Feature","properties":{"name":"Park at Sycamore","addr":"3801 Sycamore School Rd","units":216},"geometry":{"type":"Point","coordinates":[-97.37751,32.63356]}},{"type":"Feature","properties":{"name":"The Dylan","addr":"5344 Sycamore School Rd","units":227},"geometry":{"type":"Point","coordinates":[-97.40932,32.63222]}},{"type":"Feature","properties":{"name":"Sunset Pointe Apartments","addr":"5400 Sycamore School Rd","units":224},"geometry":{"type":"Point","coordinates":[-97.41086,32.63108]}},{"type":"Feature","properties":{"name":"Hunter Chase","addr":"1500 Sylvan Dr","units":209},"geometry":{"type":"Point","coordinates":[-97.18428,32.83339]}},{"type":"Feature","properties":{"name":"Hulen Gardens","addr":"7415 Tallow Wind Trl","units":200},"geometry":{"type":"Point","coordinates":[-97.39343,32.63453]}},{"type":"Feature","properties":{"name":"Grand Estates @ Keller","addr":"500 N Tarrant Pky","units":160},"geometry":{"type":"Point","coordinates":[-97.24287,32.89658]}},{"type":"Feature","properties":{"name":"Aventine Apartments","addr":"5551 N Tarrant Pky","units":240},"geometry":{"type":"Point","coordinates":[-97.26566,32.89554]}},{"type":"Feature","properties":{"name":"Sierra Gardens","addr":"2200 Taxco Rd","units":235},"geometry":{"type":"Point","coordinates":[-97.42117,32.7385]}},{"type":"Feature","properties":{"name":"Kennington Apartments","addr":"6406 Tealcove Dr","units":153},"geometry":{"type":"Point","coordinates":[-97.20869,32.66478]}},{"type":"Feature","properties":{"name":"Toscana Villas","addr":"1325 Tennis Dr","units":160},"geometry":{"type":"Point","coordinates":[-97.16472,32.83568]}},{"type":"Feature","properties":{"name":"The Courts of Bedford","addr":"1501 Tennis Dr","units":190},"geometry":{"type":"Point","coordinates":[-97.16365,32.83784]}},{"type":"Feature","properties":{"name":"Oak Timbers","addr":"308 E Terrell Ave","units":168},"geometry":{"type":"Point","coordinates":[-97.32359,32.7352]}},{"type":"Feature","properties":{"name":"Oakmont Apartment Homes","addr":"834 Timberlake Dr","units":224},"geometry":{"type":"Point","coordinates":[-97.04772,32.72742]}},{"type":"Feature","properties":{"name":"Arthouse Apartments","addr":"251 Town Center Ln","units":187},"geometry":{"type":"Point","coordinates":[-97.22617,32.93123]}},{"type":"Feature","properties":{"name":"Cedar Point","addr":"1751 Towne Crossing Blvd","units":176},"geometry":{"type":"Point","coordinates":[-97.14774,32.58842]}},{"type":"Feature","properties":{"name":"Trinity Bell Gardens","addr":"9500 Trinity Blvd","units":240},"geometry":{"type":"Point","coordinates":[-97.16858,32.80114]}},{"type":"Feature","properties":{"name":"The Madrid","addr":"2711 Trinity Bend Cir","units":201},"geometry":{"type":"Point","coordinates":[-97.09327,32.7791]}},{"type":"Feature","properties":{"name":"Trinity Trace","addr":"1707 Trinity Heights Dr","units":240},"geometry":{"type":"Point","coordinates":[-97.08363,32.6831]}},{"type":"Feature","properties":{"name":"Saint Andrews at River Park","addr":"2801 Turnberry Dr","units":226},"geometry":{"type":"Point","coordinates":[-97.09256,32.7853]}},{"type":"Feature","properties":{"name":"Walnut Creek","addr":"5901 Valleycreek Ln","units":224},"geometry":{"type":"Point","coordinates":[-97.13331,32.65103]}},{"type":"Feature","properties":{"name":"The Crescent Fort Worth","addr":"800 Van Cliburn Way","units":168},"geometry":{"type":"Point","coordinates":[-97.36407,32.7507]}},{"type":"Feature","properties":{"name":"Decker Apartment Homes","addr":"6351 Vega Dr","units":216},"geometry":{"type":"Point","coordinates":[-97.37218,32.65135]}},{"type":"Feature","properties":{"name":"The Kimberly","addr":"5920 Vermillion St","units":212},"geometry":{"type":"Point","coordinates":[-97.25198,32.67169]}},{"type":"Feature","properties":{"name":"Concord House","addr":"1001 Villa Dr","units":214},"geometry":{"type":"Point","coordinates":[-97.09766,32.83311]}},{"type":"Feature","properties":{"name":"The Fitzroy Village Creek","addr":"200 Village Creek Pky","units":210},"geometry":{"type":"Point","coordinates":[-97.31091,32.54598]}},{"type":"Feature","properties":{"name":"Chaparral Ranch Homes","addr":"9600 Vista Grande Blvd","units":236},"geometry":{"type":"Point","coordinates":[-97.29486,32.61518]}},{"type":"Feature","properties":{"name":"Sansom Pointe Senior Apartments","addr":"2500 Washington Ave","units":216},"geometry":{"type":"Point","coordinates":[-97.39481,32.8074]}},{"type":"Feature","properties":{"name":"Hidden Valley Arlington","addr":"744 Washington Dr","units":178},"geometry":{"type":"Point","coordinates":[-97.09982,32.76992]}},{"type":"Feature","properties":{"name":"Gateway Park Apartments","addr":"2500 S Watson Rd","units":204},"geometry":{"type":"Point","coordinates":[-97.06459,32.70261]}},{"type":"Feature","properties":{"name":"Mariposa At Harris Road","addr":"1201 West Harris Rd","units":180},"geometry":{"type":"Point","coordinates":[-97.13357,32.62703]}},{"type":"Feature","properties":{"name":"Creekside","addr":"6751 Westcreek Dr","units":164},"geometry":{"type":"Point","coordinates":[-97.36447,32.64586]}},{"type":"Feature","properties":{"name":"Quail Run Mobile Home Park","addr":"8028 Wichita St","units":181},"geometry":{"type":"Point","coordinates":[-97.28837,32.63948]}},{"type":"Feature","properties":{"name":"Wimbledon Oaks","addr":"1802 Wimbledon Oaks Ln","units":248},"geometry":{"type":"Point","coordinates":[-97.13574,32.6622]}},{"type":"Feature","properties":{"name":"Bardin Oaks","addr":"4624 Windstone Dr","units":220},"geometry":{"type":"Point","coordinates":[-97.11123,32.67173]}},{"type":"Feature","properties":{"name":"Atria at Hometown","addr":"6350 Winter Park Dr","units":193},"geometry":{"type":"Point","coordinates":[-97.20148,32.86102]}},{"type":"Feature","properties":{"name":"Brandon Oaks","addr":"1415 Wiscasset Dr","units":200},"geometry":{"type":"Point","coordinates":[-97.05913,32.72201]}},{"type":"Feature","properties":{"name":"Flintridge Apartments","addr":"708 Woodard Way","units":188},"geometry":{"type":"Point","coordinates":[-97.09905,32.77242]}},{"type":"Feature","properties":{"name":"Ariva","addr":"6201 Woodway Dr","units":176},"geometry":{"type":"Point","coordinates":[-97.37567,32.65358]}},{"type":"Feature","properties":{"name":"Mayfield Park Apartments","addr":"2104 Worth St","units":240},"geometry":{"type":"Point","coordinates":[-97.07361,32.69126]}},{"type":"Feature","properties":{"name":"Los Robles Mobile Home Park","addr":"2301 Ballpark Way","units":169},"geometry":{"type":"Point","coordinates":[-97.07308,32.77251]}},{"type":"Feature","properties":{"name":"Mercantile Lofts","addr":"800 W Bardin Rd","units":250},"geometry":{"type":"Point","coordinates":[-97.1191,32.66981]}},{"type":"Feature","properties":{"name":"Chisholm Trail Ranch","addr":"8800-9299 Brewer Blvd","units":244},"geometry":{"type":"Point","coordinates":[-97.4152,32.62385]}},{"type":"Feature","properties":{"name":"Watermere at the Preserve","addr":"8617 Davis Blvd","units":212},"geometry":{"type":"Point","coordinates":[-97.19014,32.91118]}},{"type":"Feature","properties":{"name":"Haven at Lloyd Park","addr":"961 N Day Miar Rd","units":245},"geometry":{"type":"Point","coordinates":[-97.07133,32.60484]}},{"type":"Feature","properties":{"name":"Palladium Oak Grove","addr":"1000 Oak Grove Rd","units":240},"geometry":{"type":"Point","coordinates":[-97.31712,32.67306]}},{"type":"Feature","properties":{"name":"Riverside Villas","addr":"3741 Post Oak Blvd","units":180},"geometry":{"type":"Point","coordinates":[-97.06997,32.81951]}},{"type":"Feature","properties":{"name":"Oak Leaf Mobile Home Park","addr":"8100 Precinct Line Rd","units":200},"geometry":{"type":"Point","coordinates":[-97.18907,32.89455]}},{"type":"Feature","properties":{"name":"Springmist Apartments","addr":"2004 Randy Snow Rd","units":168},"geometry":{"type":"Point","coordinates":[-97.08991,32.76609]}},{"type":"Feature","properties":{"name":"Avendale at Chisholm Trail Ranch","addr":"5900 Saddle Pack Dr","units":247},"geometry":{"type":"Point","coordinates":[-97.41506,32.61191]}},{"type":"Feature","properties":{"name":"Hunter Crossroads","addr":"12951 N Saginaw Blvd","units":232},"geometry":{"type":"Point","coordinates":[-97.4185,32.96549]}},{"type":"Feature","properties":{"name":"Tricon Saginaw","addr":"1040 Springhill Dr","units":166},"geometry":{"type":"Point","coordinates":[-97.3857,32.85771]}},{"type":"Feature","properties":{"name":"South Arlington Estates","addr":"7400 Twin Parks Dr","units":249},"geometry":{"type":"Point","coordinates":[-97.11783,32.62509]}},{"type":"Feature","properties":{"addr":"2329 Benbrook Blvd","units":8},"geometry":{"type":"Point","coordinates":[-97.35165,32.70326]}},{"type":"Feature","properties":{"addr":"5504-5508 Birchman Ave","units":14},"geometry":{"type":"Point","coordinates":[-97.40475,32.73523]}},{"type":"Feature","properties":{"name":"Birchman Commons","addr":"5601 Birchman Ave","units":20},"geometry":{"type":"Point","coordinates":[-97.40641,32.73468]}},{"type":"Feature","properties":{"addr":"7311 FM 1886","units":12},"geometry":{"type":"Point","coordinates":[-97.61096,32.83526]}},{"type":"Feature","properties":{"name":"Sasha at Jennings","addr":"1412 S Jennings Ave","units":14},"geometry":{"type":"Point","coordinates":[-97.33057,32.72901]}},{"type":"Feature","properties":{"name":"Azle Creek Apartments","addr":"514-527 W Main St","units":43},"geometry":{"type":"Point","coordinates":[-97.54939,32.89905]}},{"type":"Feature","properties":{"addr":"3225 McCart Ave","units":12},"geometry":{"type":"Point","coordinates":[-97.35318,32.70325]}},{"type":"Feature","properties":{"addr":"811 S Mesquite St","units":12},"geometry":{"type":"Point","coordinates":[-97.10458,32.72869]}},{"type":"Feature","properties":{"name":"Richland Court","addr":"6626 Reeves St","units":46},"geometry":{"type":"Point","coordinates":[-97.23909,32.81185]}},{"type":"Feature","properties":{"name":"Shadydell Townhomes","addr":"5801 Shadydell Dr","units":44},"geometry":{"type":"Point","coordinates":[-97.4146,32.82178]}},{"type":"Feature","properties":{"name":"Sasha at University","addr":"2500 S University Dr","units":20},"geometry":{"type":"Point","coordinates":[-97.36086,32.71605]}},{"type":"Feature","properties":{"addr":"209 Vista Way","units":4},"geometry":{"type":"Point","coordinates":[-97.47389,32.6713]}},{"type":"Feature","properties":{"name":"Urbane @ Linwood Townhomes","addr":"2801 Weisenberger St","units":4},"geometry":{"type":"Point","coordinates":[-97.35693,32.75693]}},{"type":"Feature","properties":{"name":"Uptown Apartments","addr":"621-709 1st St","units":8},"geometry":{"type":"Point","coordinates":[-97.32794,32.75881]}},{"type":"Feature","properties":{"addr":"100 E 3rd St","units":8},"geometry":{"type":"Point","coordinates":[-97.10667,32.72985]}},{"type":"Feature","properties":{"name":"Kelly Apartments","addr":"106 E 3rd St","units":13},"geometry":{"type":"Point","coordinates":[-97.10627,32.72983]}},{"type":"Feature","properties":{"addr":"3801-3813 E 4th St","units":9},"geometry":{"type":"Point","coordinates":[-97.29172,32.76354]}},{"type":"Feature","properties":{"addr":"310 W 4th St","units":4},"geometry":{"type":"Point","coordinates":[-97.2251,32.64656]}},{"type":"Feature","properties":{"name":"5th Avenue Place","addr":"1605 5th Ave","units":16},"geometry":{"type":"Point","coordinates":[-97.33854,32.72754]}},{"type":"Feature","properties":{"name":"Magnolia Park","addr":"2901 W 5th St","units":36},"geometry":{"type":"Point","coordinates":[-97.35867,32.75278]}},{"type":"Feature","properties":{"addr":"3107 W 5th St","units":4},"geometry":{"type":"Point","coordinates":[-97.36172,32.75268]}},{"type":"Feature","properties":{"addr":"3413 W 5th St","units":8},"geometry":{"type":"Point","coordinates":[-97.36736,32.75278]}},{"type":"Feature","properties":{"addr":"3417 W 5th St","units":8},"geometry":{"type":"Point","coordinates":[-97.36727,32.75274]}},{"type":"Feature","properties":{"addr":"1411 6th Ave","units":4},"geometry":{"type":"Point","coordinates":[-97.34004,32.72896]}},{"type":"Feature","properties":{"addr":"1830 6th Ave","units":4},"geometry":{"type":"Point","coordinates":[-97.34041,32.72419]}},{"type":"Feature","properties":{"addr":"3336 W 6th St","units":6},"geometry":{"type":"Point","coordinates":[-97.36647,32.75248]}},{"type":"Feature","properties":{"addr":"3428 W 6th St","units":6},"geometry":{"type":"Point","coordinates":[-97.3681,32.75242]}},{"type":"Feature","properties":{"name":"West 7th Apartments","addr":"3900 W 7th St","units":23},"geometry":{"type":"Point","coordinates":[-97.37587,32.7518]}},{"type":"Feature","properties":{"name":"Wayside Plaza","addr":"601 9th Ave","units":23},"geometry":{"type":"Point","coordinates":[-97.34523,32.7376]}},{"type":"Feature","properties":{"name":"Belmont Oaks","addr":"2500 NW 18th St","units":42},"geometry":{"type":"Point","coordinates":[-97.38199,32.7888]}},{"type":"Feature","properties":{"name":"Fossil Ridge Apartments","addr":"2600-2680 NW 18th St","units":44},"geometry":{"type":"Point","coordinates":[-97.38349,32.79011]}},{"type":"Feature","properties":{"name":"North Point Apartments","addr":"2050 NW 21st St","units":6},"geometry":{"type":"Point","coordinates":[-97.36891,32.78174]}},{"type":"Feature","properties":{"addr":"504 NW 25th St","units":7},"geometry":{"type":"Point","coordinates":[-97.35447,32.79012]}},{"type":"Feature","properties":{"name":"Midway Inn Apartments","addr":"3016 E Abram St","units":32},"geometry":{"type":"Point","coordinates":[-97.05513,32.7364]}},{"type":"Feature","properties":{"name":"Silver Belle Apartments","addr":"3232 E Abram St","units":6},"geometry":{"type":"Point","coordinates":[-97.04949,32.7368]}},{"type":"Feature","properties":{"name":"Heatherway North Apartments","addr":"1009 W Abram St","units":24},"geometry":{"type":"Point","coordinates":[-97.11943,32.73615]}},{"type":"Feature","properties":{"addr":"1316 S Adams St","units":3},"geometry":{"type":"Point","coordinates":[-97.33705,32.73004]}},{"type":"Feature","properties":{"name":"Alexander Ln Apartments","addr":"505 E Alexander Ln","units":39},"geometry":{"type":"Point","coordinates":[-97.07569,32.83554]}},{"type":"Feature","properties":{"addr":"1317 Alston Ave","units":8},"geometry":{"type":"Point","coordinates":[-97.33394,32.72975]}},{"type":"Feature","properties":{"addr":"1619 Alston Ave","units":4},"geometry":{"type":"Point","coordinates":[-97.33396,32.72639]}},{"type":"Feature","properties":{"addr":"11093 Alta Vista Rd","units":35},"geometry":{"type":"Point","coordinates":[-97.28265,32.93386]}},{"type":"Feature","properties":{"name":"La Colline Apartments","addr":"4601 Altamesa Blvd","units":42},"geometry":{"type":"Point","coordinates":[-97.39464,32.64769]}},{"type":"Feature","properties":{"name":"400 Amber Ln","addr":"400 Amber Ln","units":4},"geometry":{"type":"Point","coordinates":[-97.36423,32.57499]}},{"type":"Feature","properties":{"addr":"404 Amber Ln","units":4},"geometry":{"type":"Point","coordinates":[-97.36399,32.57478]}},{"type":"Feature","properties":{"name":"The Woods Fourplex","addr":"6720 Anglin Dr","units":4},"geometry":{"type":"Point","coordinates":[-97.25296,32.65702]}},{"type":"Feature","properties":{"name":"Arbor Glen Common","addr":"501 Arbor Creek Dr","units":15},"geometry":{"type":"Point","coordinates":[-97.07525,32.84694]}},{"type":"Feature","properties":{"name":"2201 Arbrook","addr":"2201 E Arbrook Blvd","units":30},"geometry":{"type":"Point","coordinates":[-97.0721,32.68489]}},{"type":"Feature","properties":{"name":"Arkansas Villa","addr":"1301 W Arkansas Ln","units":24},"geometry":{"type":"Point","coordinates":[-97.12794,32.70696]}},{"type":"Feature","properties":{"addr":"221 Arnold Ave","units":6},"geometry":{"type":"Point","coordinates":[-97.09371,32.73421]}},{"type":"Feature","properties":{"addr":"312-324 Asbury Dr","units":7},"geometry":{"type":"Point","coordinates":[-97.37264,32.86758]}},{"type":"Feature","properties":{"name":"Aspen Oaks","addr":"905 W Ash Ln","units":40},"geometry":{"type":"Point","coordinates":[-97.0978,32.85965]}},{"type":"Feature","properties":{"addr":"3100 Avenue G","units":6},"geometry":{"type":"Point","coordinates":[-97.28089,32.7296]}},{"type":"Feature","properties":{"addr":"3317 Avenue G","units":4},"geometry":{"type":"Point","coordinates":[-97.27726,32.73]}},{"type":"Feature","properties":{"addr":"3321 Avenue G","units":4},"geometry":{"type":"Point","coordinates":[-97.27707,32.73]}},{"type":"Feature","properties":{"name":"Azle Ave Mobile Home Park","addr":"5201 Azle Ave","units":15},"geometry":{"type":"Point","coordinates":[-97.39819,32.80918]}},{"type":"Feature","properties":{"name":"Crestwood Apartments","addr":"133 N Bailey Ave","units":10},"geometry":{"type":"Point","coordinates":[-97.37039,32.75952]}},{"type":"Feature","properties":{"name":"Bellaire Apartments","addr":"7030 Baker Blvd","units":16},"geometry":{"type":"Point","coordinates":[-97.23002,32.80869]}},{"type":"Feature","properties":{"addr":"220 Baughman Hill Rd","units":11},"geometry":{"type":"Point","coordinates":[-97.56771,32.86929]}},{"type":"Feature","properties":{"addr":"261-275 Baughman Hill Rd","units":5},"geometry":{"type":"Point","coordinates":[-97.5658,32.87277]}},{"type":"Feature","properties":{"name":"Sycamore Park Apartments","addr":"900 S Beach St","units":36},"geometry":{"type":"Point","coordinates":[-97.28995,32.73488]}},{"type":"Feature","properties":{"addr":"5500-5532 Beatty St","units":18},"geometry":{"type":"Point","coordinates":[-97.23608,32.7401]}},{"type":"Feature","properties":{"addr":"5500-5504 Beaty St","units":12},"geometry":{"type":"Point","coordinates":[-97.23653,32.73969]}},{"type":"Feature","properties":{"name":"Palo Royale Apts","addr":"5501-5505 Beaty St","units":10},"geometry":{"type":"Point","coordinates":[-97.23634,32.74014]}},{"type":"Feature","properties":{"addr":"5508-5512 Beaty St","units":8},"geometry":{"type":"Point","coordinates":[-97.23614,32.7396]}},{"type":"Feature","properties":{"addr":"5511-5515 Beaty St","units":16},"geometry":{"type":"Point","coordinates":[-97.23584,32.7401]}},{"type":"Feature","properties":{"name":"Beaty Street Apartments","addr":"5520-5540 Beaty St","units":8},"geometry":{"type":"Point","coordinates":[-97.23547,32.73966]}},{"type":"Feature","properties":{"addr":"5521-5525 Beaty St","units":6},"geometry":{"type":"Point","coordinates":[-97.23551,32.74017]}},{"type":"Feature","properties":{"addr":"5532 Beaty St","units":16},"geometry":{"type":"Point","coordinates":[-97.23484,32.73965]}},{"type":"Feature","properties":{"addr":"5532 Beaty St","units":16},"geometry":{"type":"Point","coordinates":[-97.23496,32.73964]}},{"type":"Feature","properties":{"addr":"5541 Beaty St","units":4},"geometry":{"type":"Point","coordinates":[-97.23483,32.74011]}},{"type":"Feature","properties":{"name":"Townhomes of Remington Aim","addr":"1000 W Belknap St","units":18},"geometry":{"type":"Point","coordinates":[-97.34118,32.75431]}},{"type":"Feature","properties":{"addr":"1221 Belle Pl","units":6},"geometry":{"type":"Point","coordinates":[-97.3756,32.74699]}},{"type":"Feature","properties":{"addr":"2605 Benbrook Blvd","units":5},"geometry":{"type":"Point","coordinates":[-97.35479,32.70156]}},{"type":"Feature","properties":{"name":"Benge Oaks Apartments","addr":"716 Benge Dr","units":14},"geometry":{"type":"Point","coordinates":[-97.1163,32.72399]}},{"type":"Feature","properties":{"name":"University Terrace Apartments","addr":"720 Benge Dr","units":21},"geometry":{"type":"Point","coordinates":[-97.11647,32.72401]}},{"type":"Feature","properties":{"name":"University Terrace","addr":"800 Benge Dr","units":22},"geometry":{"type":"Point","coordinates":[-97.11682,32.72426]}},{"type":"Feature","properties":{"name":"Campus Walk Apartments","addr":"806 Benge Dr","units":28},"geometry":{"type":"Point","coordinates":[-97.11726,32.72403]}},{"type":"Feature","properties":{"name":"Mesa Apartments","addr":"820 Benge Dr","units":33},"geometry":{"type":"Point","coordinates":[-97.11855,32.72426]}},{"type":"Feature","properties":{"name":"Berke Place","addr":"6616 Berke Pl","units":24},"geometry":{"type":"Point","coordinates":[-97.43171,32.72581]}},{"type":"Feature","properties":{"name":"Sandstone Apartments","addr":"1901 Bernice St","units":12},"geometry":{"type":"Point","coordinates":[-97.27825,32.7872]}},{"type":"Feature","properties":{"name":"Lake Arlington Village MHP","addr":"6001 E Berry St","units":32},"geometry":{"type":"Point","coordinates":[-97.22743,32.70824]}},{"type":"Feature","properties":{"addr":"513 S Beverly St","units":4},"geometry":{"type":"Point","coordinates":[-97.36489,32.57467]}},{"type":"Feature","properties":{"name":"Birchman Apartments","addr":"5025 Birchman Ave","units":8},"geometry":{"type":"Point","coordinates":[-97.39636,32.7346]}},{"type":"Feature","properties":{"name":"La Chateau Plaza","addr":"5429 Birchman Ave","units":18},"geometry":{"type":"Point","coordinates":[-97.40391,32.73462]}},{"type":"Feature","properties":{"name":"Willows Apartments","addr":"612 S Blue Mound Rd","units":8},"geometry":{"type":"Point","coordinates":[-97.34355,32.85358]}},{"type":"Feature","properties":{"name":"Burleson Loft Apartments","addr":"520 Bond St","units":16},"geometry":{"type":"Point","coordinates":[-97.33654,32.54006]}},{"type":"Feature","properties":{"name":"Sunny Ridge","addr":"320 Booth Calloway Rd","units":50},"geometry":{"type":"Point","coordinates":[-97.21133,32.81522]}},{"type":"Feature","properties":{"name":"Sunrise Vista Apartments","addr":"5100 Brentwood Stair Rd","units":20},"geometry":{"type":"Point","coordinates":[-97.24493,32.75866]}},{"type":"Feature","properties":{"name":"Las Brisas Apartments","addr":"6414 Brentwood Stair Rd","units":33},"geometry":{"type":"Point","coordinates":[-97.22048,32.75882]}},{"type":"Feature","properties":{"name":"Broadway Apartments","addr":"4209 Broadway Ave","units":24},"geometry":{"type":"Point","coordinates":[-97.28561,32.8105]}},{"type":"Feature","properties":{"addr":"6161 Brocks Ln","units":6},"geometry":{"type":"Point","coordinates":[-97.41773,32.77586]}},{"type":"Feature","properties":{"addr":"311 Bryan Ave","units":16},"geometry":{"type":"Point","coordinates":[-97.32468,32.74136]}},{"type":"Feature","properties":{"name":"Bryce Ave Apartments","addr":"4801 Bryce Ave","units":24},"geometry":{"type":"Point","coordinates":[-97.3918,32.73932]}},{"type":"Feature","properties":{"name":"Bryce House","addr":"4901 Bryce Ave","units":22},"geometry":{"type":"Point","coordinates":[-97.39338,32.73907]}},{"type":"Feature","properties":{"name":"Heritage House","addr":"4808 Bryce St","units":18},"geometry":{"type":"Point","coordinates":[-97.39182,32.7398]}},{"type":"Feature","properties":{"name":"Westover Trails","addr":"1201 Burton Hill Rd","units":28},"geometry":{"type":"Point","coordinates":[-97.40477,32.74754]}},{"type":"Feature","properties":{"name":"Chaparral Apartments","addr":"4538 Byers Ave","units":20},"geometry":{"type":"Point","coordinates":[-97.38735,32.7389]}},{"type":"Feature","properties":{"name":"5033 Byers Ave","addr":"5033 Byers Ave","units":7},"geometry":{"type":"Point","coordinates":[-97.39647,32.73835]}},{"type":"Feature","properties":{"addr":"5325 Byers Ave","units":4},"geometry":{"type":"Point","coordinates":[-97.4017,32.73846]}},{"type":"Feature","properties":{"name":"Courtyard on Calmont","addr":"6760 Calmont Ave","units":50},"geometry":{"type":"Point","coordinates":[-97.43332,32.73468]}},{"type":"Feature","properties":{"addr":"8017 Cambridge Cir","units":4},"geometry":{"type":"Point","coordinates":[-97.45522,32.7423]}},{"type":"Feature","properties":{"addr":"8028 Cambridge Cir","units":8},"geometry":{"type":"Point","coordinates":[-97.4548,32.74201]}},{"type":"Feature","properties":{"name":"West 3855","addr":"3855 Camp Bowie Blvd","units":30},"geometry":{"type":"Point","coordinates":[-97.37482,32.74518]}},{"type":"Feature","properties":{"addr":"715-723 W Cannon St","units":8},"geometry":{"type":"Point","coordinates":[-97.33252,32.73717]}},{"type":"Feature","properties":{"addr":"800 W Capps St","units":5},"geometry":{"type":"Point","coordinates":[-97.33306,32.71326]}},{"type":"Feature","properties":{"name":"Villa Capri","addr":"2213 Capri Dr","units":42},"geometry":{"type":"Point","coordinates":[-97.39121,32.79299]}},{"type":"Feature","properties":{"addr":"5632 Carver Dr","units":6},"geometry":{"type":"Point","coordinates":[-97.40787,32.71622]}},{"type":"Feature","properties":{"name":"Oxford Apartments","addr":"604 Causley Ave","units":50},"geometry":{"type":"Point","coordinates":[-97.11339,32.72403]}},{"type":"Feature","properties":{"addr":"108 E Cedar St","units":12},"geometry":{"type":"Point","coordinates":[-97.10614,32.74442]}},{"type":"Feature","properties":{"addr":"1501 Cedar Elm Dr","units":3},"geometry":{"type":"Point","coordinates":[-97.07787,32.85739]}},{"type":"Feature","properties":{"addr":"719 Center St","units":12},"geometry":{"type":"Point","coordinates":[-97.10653,32.74582]}},{"type":"Feature","properties":{"addr":"715 N Center St","units":20},"geometry":{"type":"Point","coordinates":[-97.10655,32.74546]}},{"type":"Feature","properties":{"name":"Monticello Apartments","addr":"801 N Center St","units":37},"geometry":{"type":"Point","coordinates":[-97.10636,32.74639]}},{"type":"Feature","properties":{"name":"Vista Place","addr":"810 N Center St","units":20},"geometry":{"type":"Point","coordinates":[-97.10714,32.74675]}},{"type":"Feature","properties":{"name":"Stadium West Apartments","addr":"812 N Center St","units":32},"geometry":{"type":"Point","coordinates":[-97.10729,32.74707]}},{"type":"Feature","properties":{"name":"Dillon Apartments","addr":"900 N Center St","units":20},"geometry":{"type":"Point","coordinates":[-97.10714,32.74809]}},{"type":"Feature","properties":{"addr":"7600 Chapin Rd","units":4},"geometry":{"type":"Point","coordinates":[-97.4467,32.71647]}},{"type":"Feature","properties":{"addr":"7700 Chapin Rd","units":9},"geometry":{"type":"Point","coordinates":[-97.44801,32.71671]}},{"type":"Feature","properties":{"name":"Treehouse Apartments","addr":"1400 Cherry Dr","units":16},"geometry":{"type":"Point","coordinates":[-97.12917,32.70771]}},{"type":"Feature","properties":{"addr":"3736 Cibolo Dr","units":6},"geometry":{"type":"Point","coordinates":[-97.37483,32.64918]}},{"type":"Feature","properties":{"name":"Northview Apartments","addr":"2415 Clinton Ave","units":16},"geometry":{"type":"Point","coordinates":[-97.35323,32.78919]}},{"type":"Feature","properties":{"name":"North Hill Town Homes","addr":"5000-5032 Cloyce Ct","units":17},"geometry":{"type":"Point","coordinates":[-97.22006,32.83802]}},{"type":"Feature","properties":{"addr":"3817-3837 Coates Cir","units":12},"geometry":{"type":"Point","coordinates":[-97.4509,32.71555]}},{"type":"Feature","properties":{"name":"Cody Court Apartments","addr":"940 Cody Ct","units":13},"geometry":{"type":"Point","coordinates":[-97.40052,32.775]}},{"type":"Feature","properties":{"addr":"1200 College Ave","units":4},"geometry":{"type":"Point","coordinates":[-97.33529,32.73178]}},{"type":"Feature","properties":{"addr":"1220 College Ave","units":10},"geometry":{"type":"Point","coordinates":[-97.33526,32.73124]}},{"type":"Feature","properties":{"name":"College Avenue Lofts","addr":"1329 College Ave","units":5},"geometry":{"type":"Point","coordinates":[-97.33482,32.72948]}},{"type":"Feature","properties":{"name":"The Bailey","addr":"1420-1426 College Ave","units":16},"geometry":{"type":"Point","coordinates":[-97.3353,32.72851]}},{"type":"Feature","properties":{"addr":"1615 College Ave","units":4},"geometry":{"type":"Point","coordinates":[-97.33484,32.72653]}},{"type":"Feature","properties":{"addr":"1710 College Ave","units":4},"geometry":{"type":"Point","coordinates":[-97.3353,32.72555]}},{"type":"Feature","properties":{"addr":"300 College St","units":8},"geometry":{"type":"Point","coordinates":[-97.11237,32.73481]}},{"type":"Feature","properties":{"addr":"309 College St","units":6},"geometry":{"type":"Point","coordinates":[-97.11167,32.73414]}},{"type":"Feature","properties":{"name":"The Lofts in Colleyville","addr":"5232 Colleyville Blvd","units":30},"geometry":{"type":"Point","coordinates":[-97.15263,32.88629]}},{"type":"Feature","properties":{"name":"Colorado Square","addr":"1234 Colorado Ln","units":38},"geometry":{"type":"Point","coordinates":[-97.12763,32.70196]}},{"type":"Feature","properties":{"name":"Comanche Trail Apartments","addr":"7300 Comanche Trl","units":8},"geometry":{"type":"Point","coordinates":[-97.44444,32.80805]}},{"type":"Feature","properties":{"name":"Oculus II","addr":"509 N Cooper St","units":16},"geometry":{"type":"Point","coordinates":[-97.11401,32.74206]}},{"type":"Feature","properties":{"name":"Mustang Flats","addr":"507 Cora St","units":18},"geometry":{"type":"Point","coordinates":[-97.11172,32.74914]}},{"type":"Feature","properties":{"name":"Waterchase at Creek Run","addr":"8871 Creek Run Rd","units":24},"geometry":{"type":"Point","coordinates":[-97.15972,32.76445]}},{"type":"Feature","properties":{"addr":"405 Crest Line Dr","units":8},"geometry":{"type":"Point","coordinates":[-97.13388,32.73796]}},{"type":"Feature","properties":{"addr":"407 Crest Line Dr","units":5},"geometry":{"type":"Point","coordinates":[-97.13387,32.738]}},{"type":"Feature","properties":{"addr":"3319 Crites St","units":6},"geometry":{"type":"Point","coordinates":[-97.24272,32.81026]}},{"type":"Feature","properties":{"name":"Knights of Pythias Lofts","addr":"303 Crump St","units":18},"geometry":{"type":"Point","coordinates":[-97.32572,32.75853]}},{"type":"Feature","properties":{"name":"Treehouse Apartments","addr":"5201-5205 Curzon Ave","units":16},"geometry":{"type":"Point","coordinates":[-97.39884,32.72986]}},{"type":"Feature","properties":{"name":"Treehouse Apartments","addr":"5205 Curzon Ave","units":16},"geometry":{"type":"Point","coordinates":[-97.3992,32.72973]}},{"type":"Feature","properties":{"addr":"410 W Daggett Ave","units":11},"geometry":{"type":"Point","coordinates":[-97.32912,32.74218]}},{"type":"Feature","properties":{"name":"The Chuckwood Apartments","addr":"5720 Dallas Ave","units":10},"geometry":{"type":"Point","coordinates":[-97.23142,32.73612]}},{"type":"Feature","properties":{"addr":"5816-5820 Dallas Ave","units":4},"geometry":{"type":"Point","coordinates":[-97.23034,32.73577]}},{"type":"Feature","properties":{"name":"Premier Gardens Apartments","addr":"3613 Dexter Ave","units":48},"geometry":{"type":"Point","coordinates":[-97.37117,32.74045]}},{"type":"Feature","properties":{"name":"Rivercrest Manor Apartments","addr":"4700 Dexter Ave","units":48},"geometry":{"type":"Point","coordinates":[-97.39038,32.74087]}},{"type":"Feature","properties":{"name":"Hulen Townhomes","addr":"4928 Diaz Ave","units":8},"geometry":{"type":"Point","coordinates":[-97.39484,32.7275]}},{"type":"Feature","properties":{"name":"Dorothy Lane Apartments","addr":"908 Dorothy Ln","units":35},"geometry":{"type":"Point","coordinates":[-97.37416,32.75029]}},{"type":"Feature","properties":{"name":"Fort Worth Meadows Apartments","addr":"7721 Dutch Branch Rd","units":46},"geometry":{"type":"Point","coordinates":[-97.42803,32.65062]}},{"type":"Feature","properties":{"name":"Arbor View Apartments","addr":"4738 El Campo Ave","units":15},"geometry":{"type":"Point","coordinates":[-97.39095,32.73693]}},{"type":"Feature","properties":{"name":"The Studio","addr":"4900 El Campo Ave","units":6},"geometry":{"type":"Point","coordinates":[-97.39333,32.73703]}},{"type":"Feature","properties":{"name":"Whisperwind Crossing Apartments","addr":"4928 El Campo Ave","units":49},"geometry":{"type":"Point","coordinates":[-97.39377,32.73705]}},{"type":"Feature","properties":{"name":"Carriage Square","addr":"6709 W Elizabeth Ln","units":50},"geometry":{"type":"Point","coordinates":[-97.4323,32.72381]}},{"type":"Feature","properties":{"name":"Fort West Apartments","addr":"8037 W Elizabeth Ln","units":48},"geometry":{"type":"Point","coordinates":[-97.45434,32.7245]}},{"type":"Feature","properties":{"name":"Fort Worth Stockyards","addr":"2401 Ellis Ave","units":22},"geometry":{"type":"Point","coordinates":[-97.35069,32.78823]}},{"type":"Feature","properties":{"addr":"507 N Elm St","units":12},"geometry":{"type":"Point","coordinates":[-97.10417,32.74376]}},{"type":"Feature","properties":{"name":"Diamond Villa","addr":"509 N Elm St","units":18},"geometry":{"type":"Point","coordinates":[-97.10375,32.74374]}},{"type":"Feature","properties":{"name":"Fair Park Apartments","addr":"4400 Fair Park Blvd","units":48},"geometry":{"type":"Point","coordinates":[-97.31325,32.68359]}},{"type":"Feature","properties":{"name":"RPR Village","addr":"1110 Fairmount Ave","units":30},"geometry":{"type":"Point","coordinates":[-97.34169,32.73256]}},{"type":"Feature","properties":{"addr":"907 Feliks Gwozdz Pl","units":4},"geometry":{"type":"Point","coordinates":[-97.33358,32.72803]}},{"type":"Feature","properties":{"name":"Atrium Gardens At Fielder Road","addr":"1801-1803 S Fielder Rd","units":25},"geometry":{"type":"Point","coordinates":[-97.13117,32.71507]}},{"type":"Feature","properties":{"name":"Lake Como Apartments","addr":"5601 Fletcher Ave","units":40},"geometry":{"type":"Point","coordinates":[-97.40671,32.72414]}},{"type":"Feature","properties":{"name":"Ridglea Court","addr":"5928 Fletcher Ave","units":26},"geometry":{"type":"Point","coordinates":[-97.41303,32.72477]}},{"type":"Feature","properties":{"name":"Glenview Garden","addr":"4105-4110 Flory St","units":12},"geometry":{"type":"Point","coordinates":[-97.23704,32.82429]}},{"type":"Feature","properties":{"addr":"1341 Flying L Ln","units":18},"geometry":{"type":"Point","coordinates":[-97.11586,32.54077]}},{"type":"Feature","properties":{"addr":"12667 FM 730","units":50},"geometry":{"type":"Point","coordinates":[-97.566,32.89196]}},{"type":"Feature","properties":{"addr":"354 Foch St","units":4},"geometry":{"type":"Point","coordinates":[-97.35683,32.75574]}},{"type":"Feature","properties":{"name":"Granada Gables Apartments","addr":"2000 Forest Park Blvd","units":8},"geometry":{"type":"Point","coordinates":[-97.35224,32.72242]}},{"type":"Feature","properties":{"name":"Barclay Apartments","addr":"2100 Forest Park Blvd","units":17},"geometry":{"type":"Point","coordinates":[-97.35224,32.72193]}},{"type":"Feature","properties":{"addr":"2821-2825 Forest Park Blvd","units":4},"geometry":{"type":"Point","coordinates":[-97.35184,32.7104]}},{"type":"Feature","properties":{"name":"Forest Park","addr":"2845 Forest Park Blvd","units":13},"geometry":{"type":"Point","coordinates":[-97.35188,32.70976]}},{"type":"Feature","properties":{"name":"Silver Creek Lofts","addr":"8101 Foxfire Ln","units":16},"geometry":{"type":"Point","coordinates":[-97.45782,32.77104]}},{"type":"Feature","properties":{"name":"Town North Studio Apartments","addr":"601 Fuller St","units":38},"geometry":{"type":"Point","coordinates":[-97.11272,32.74741]}},{"type":"Feature","properties":{"name":"The Orchids Condominiums","addr":"1112 Galveston Ave","units":15},"geometry":{"type":"Point","coordinates":[-97.3275,32.7324]}},{"type":"Feature","properties":{"addr":"1120 Galveston Ave","units":5},"geometry":{"type":"Point","coordinates":[-97.32749,32.73226]}},{"type":"Feature","properties":{"name":"Garden Manor","addr":"113-121 Gardens Blvd","units":17},"geometry":{"type":"Point","coordinates":[-97.33492,32.53395]}},{"type":"Feature","properties":{"name":"Gateway Village","addr":"313 Gateway St","units":50},"geometry":{"type":"Point","coordinates":[-97.51905,32.88473]}},{"type":"Feature","properties":{"addr":"4932-4936 Geddes Ave","units":8},"geometry":{"type":"Point","coordinates":[-97.39487,32.72842]}},{"type":"Feature","properties":{"name":"Brentwood Apartments","addr":"1020 Gibbins Rd","units":40},"geometry":{"type":"Point","coordinates":[-97.11183,32.75097]}},{"type":"Feature","properties":{"name":"Gibbins Apartments","addr":"1218 Gibbins Rd","units":8},"geometry":{"type":"Point","coordinates":[-97.11216,32.75441]}},{"type":"Feature","properties":{"name":"Glade Corners","addr":"400 Glade Rd","units":50},"geometry":{"type":"Point","coordinates":[-97.08118,32.88239]}},{"type":"Feature","properties":{"name":"La Sierra Apartments","addr":"7102 Glenview Dr","units":20},"geometry":{"type":"Point","coordinates":[-97.22914,32.82355]}},{"type":"Feature","properties":{"name":"Gorman Duplexes","addr":"4301-4309 Gorman Dr","units":8},"geometry":{"type":"Point","coordinates":[-97.38692,32.67067]}},{"type":"Feature","properties":{"name":"Graham Square Addition","addr":"2421-2427 N Graham Dr","units":4},"geometry":{"type":"Point","coordinates":[-97.1479,32.72829]}},{"type":"Feature","properties":{"addr":"2434-2448 N Graham Dr","units":7},"geometry":{"type":"Point","coordinates":[-97.14853,32.72801]}},{"type":"Feature","properties":{"name":"Grand Manor","addr":"600 Grand Ave","units":12},"geometry":{"type":"Point","coordinates":[-97.11332,32.72222]}},{"type":"Feature","properties":{"addr":"1421-1423 Grand Ave","units":10},"geometry":{"type":"Point","coordinates":[-97.35942,32.77132]}},{"type":"Feature","properties":{"addr":"5818 Grayson St","units":8},"geometry":{"type":"Point","coordinates":[-97.23016,32.70467]}},{"type":"Feature","properties":{"name":"Ridgmar Place","addr":"2151 Green Oaks Rd","units":50},"geometry":{"type":"Point","coordinates":[-97.43277,32.7383]}},{"type":"Feature","properties":{"name":"Woodhaven Crossroads Apartments","addr":"5301 Greenshaven Dr","units":8},"geometry":{"type":"Point","coordinates":[-97.24139,32.76359]}},{"type":"Feature","properties":{"name":"Greystoke Apartments","addr":"728 Greystoke Dr","units":40},"geometry":{"type":"Point","coordinates":[-97.10173,32.74505]}},{"type":"Feature","properties":{"name":"Hampshire Park Villas","addr":"5117 N Hampshire Blvd","units":32},"geometry":{"type":"Point","coordinates":[-97.24446,32.73639]}},{"type":"Feature","properties":{"name":"Brentwood Court Apartments","addr":"1901 Handley Dr","units":42},"geometry":{"type":"Point","coordinates":[-97.21579,32.75156]}},{"type":"Feature","properties":{"addr":"7501-7523 Hanover Ln","units":12},"geometry":{"type":"Point","coordinates":[-97.22935,32.88423]}},{"type":"Feature","properties":{"name":"Plaza Apartments","addr":"6731 Hardisty St","units":14},"geometry":{"type":"Point","coordinates":[-97.23758,32.8157]}},{"type":"Feature","properties":{"name":"Hidden Oaks","addr":"122 Harmon Rd","units":32},"geometry":{"type":"Point","coordinates":[-97.17229,32.81063]}},{"type":"Feature","properties":{"name":"North Richland Hills","addr":"6520 Harmonson Rd","units":31},"geometry":{"type":"Point","coordinates":[-97.24329,32.82025]}},{"type":"Feature","properties":{"addr":"221 Harris Dr","units":20},"geometry":{"type":"Point","coordinates":[-97.35581,32.57686]}},{"type":"Feature","properties":{"addr":"909 Harvey Ave","units":18},"geometry":{"type":"Point","coordinates":[-97.31783,32.72029]}},{"type":"Feature","properties":{"addr":"7929 Harwell St","units":40},"geometry":{"type":"Point","coordinates":[-97.45276,32.76346]}},{"type":"Feature","properties":{"addr":"1516 E Hattie St","units":8},"geometry":{"type":"Point","coordinates":[-97.3078,32.73774]}},{"type":"Feature","properties":{"addr":"1601 Hemphill St","units":8},"geometry":{"type":"Point","coordinates":[-97.33124,32.72698]}},{"type":"Feature","properties":{"name":"Hemphill House Apartments","addr":"1962 Hemphill St","units":20},"geometry":{"type":"Point","coordinates":[-97.33206,32.72237]}},{"type":"Feature","properties":{"addr":"2001 Hemphill St","units":8},"geometry":{"type":"Point","coordinates":[-97.33121,32.72219]}},{"type":"Feature","properties":{"name":"Mary Elizabeth Apartments","addr":"2008 Hemphill St","units":24},"geometry":{"type":"Point","coordinates":[-97.33198,32.72187]}},{"type":"Feature","properties":{"addr":"2100 Hemphill St","units":14},"geometry":{"type":"Point","coordinates":[-97.33226,32.72099]}},{"type":"Feature","properties":{"addr":"2701 Hemphill St","units":18},"geometry":{"type":"Point","coordinates":[-97.33121,32.71292]}},{"type":"Feature","properties":{"addr":"2837 Hemphill St","units":10},"geometry":{"type":"Point","coordinates":[-97.33126,32.70982]}},{"type":"Feature","properties":{"addr":"5109 Herrick Ct","units":8},"geometry":{"type":"Point","coordinates":[-97.27237,32.82385]}},{"type":"Feature","properties":{"name":"Oxford Apartments","addr":"603 Hiett Ave","units":18},"geometry":{"type":"Point","coordinates":[-97.11304,32.72353]}},{"type":"Feature","properties":{"name":"Holiday Lane Apartments","addr":"5904 Holiday Ln","units":12},"geometry":{"type":"Point","coordinates":[-97.22486,32.85192]}},{"type":"Feature","properties":{"name":"Center Oaks","addr":"101 Hosack St","units":14},"geometry":{"type":"Point","coordinates":[-97.10621,32.7267]}},{"type":"Feature","properties":{"addr":"2304 N Houston St","units":16},"geometry":{"type":"Point","coordinates":[-97.35141,32.78726]}},{"type":"Feature","properties":{"name":"Cityview Apartments","addr":"2301 Hudson St","units":36},"geometry":{"type":"Point","coordinates":[-97.2915,32.74542]}},{"type":"Feature","properties":{"name":"West 1901","addr":"1901 Hulen St","units":36},"geometry":{"type":"Point","coordinates":[-97.38685,32.74106]}},{"type":"Feature","properties":{"addr":"1201 Hurley Ave","units":5},"geometry":{"type":"Point","coordinates":[-97.34259,32.73178]}},{"type":"Feature","properties":{"addr":"1419-1421 Hurley Ave","units":5},"geometry":{"type":"Point","coordinates":[-97.34257,32.72862]}},{"type":"Feature","properties":{"addr":"2709 Hurstview","units":5},"geometry":{"type":"Point","coordinates":[-97.17877,32.8655]}},{"type":"Feature","properties":{"addr":"2423 Indigo Ln","units":4},"geometry":{"type":"Point","coordinates":[-97.14486,32.70464]}},{"type":"Feature","properties":{"addr":"5017 Inverness Ave","units":4},"geometry":{"type":"Point","coordinates":[-97.38579,32.67341]}},{"type":"Feature","properties":{"addr":"5101 Inverness Ave","units":4},"geometry":{"type":"Point","coordinates":[-97.38564,32.67284]}},{"type":"Feature","properties":{"name":"Davis Plaza Apartments","addr":"7848 Irish Dr","units":36},"geometry":{"type":"Point","coordinates":[-97.21202,32.85057]}},{"type":"Feature","properties":{"addr":"900 Isbell Rd","units":8},"geometry":{"type":"Point","coordinates":[-97.38472,32.77395]}},{"type":"Feature","properties":{"addr":"5845 Jacksboro Hwy","units":10},"geometry":{"type":"Point","coordinates":[-97.41078,32.80235]}},{"type":"Feature","properties":{"addr":"7800 Jacksboro Hwy","units":37},"geometry":{"type":"Point","coordinates":[-97.46102,32.82154]}},{"type":"Feature","properties":{"addr":"10625 Jacksboro Hwy","units":23},"geometry":{"type":"Point","coordinates":[-97.50026,32.84482]}},{"type":"Feature","properties":{"addr":"1800 Jay Cir","units":5},"geometry":{"type":"Point","coordinates":[-97.13499,32.74229]}},{"type":"Feature","properties":{"addr":"1802 Jay Cir","units":6},"geometry":{"type":"Point","coordinates":[-97.13599,32.74244]}},{"type":"Feature","properties":{"addr":"1109-1115 Jennings Ave","units":12},"geometry":{"type":"Point","coordinates":[-97.32964,32.73266]}},{"type":"Feature","properties":{"addr":"715 S Jennings Ave","units":4},"geometry":{"type":"Point","coordinates":[-97.32974,32.73671]}},{"type":"Feature","properties":{"name":"Hanratty Place","addr":"800-810 S Jennings Ave","units":32},"geometry":{"type":"Point","coordinates":[-97.33026,32.73606]}},{"type":"Feature","properties":{"addr":"2508 W Jennings Ave","units":5},"geometry":{"type":"Point","coordinates":[-97.33061,32.71532]}},{"type":"Feature","properties":{"addr":"1364 Johnson Ave","units":40},"geometry":{"type":"Point","coordinates":[-97.09151,32.74601]}},{"type":"Feature","properties":{"name":"Shady Vista Apartments","addr":"125 NE Johnson Ave","units":35},"geometry":{"type":"Point","coordinates":[-97.3236,32.54453]}},{"type":"Feature","properties":{"name":"Silver Creek Estates","addr":"817 Keli Ct","units":36},"geometry":{"type":"Point","coordinates":[-97.54343,32.87979]}},{"type":"Feature","properties":{"addr":"500 Kings Way Dr","units":18},"geometry":{"type":"Point","coordinates":[-97.12652,32.55998]}},{"type":"Feature","properties":{"name":"Kingsford Court","addr":"2426 Kingsford Ct","units":22},"geometry":{"type":"Point","coordinates":[-97.14787,32.66256]}},{"type":"Feature","properties":{"name":"Oak Tree Apartments","addr":"3029 Lackland Rd","units":32},"geometry":{"type":"Point","coordinates":[-97.43363,32.73072]}},{"type":"Feature","properties":{"name":"Fairway Apartments","addr":"3312 Lackland Rd","units":40},"geometry":{"type":"Point","coordinates":[-97.43528,32.72304]}},{"type":"Feature","properties":{"addr":"1201 S Lake St","units":5},"geometry":{"type":"Point","coordinates":[-97.33918,32.73178]}},{"type":"Feature","properties":{"name":"Forest Apartments","addr":"3200 Lake Como Dr","units":24},"geometry":{"type":"Point","coordinates":[-97.40241,32.72865]}},{"type":"Feature","properties":{"name":"Lancaster Loft","addr":"1324 E Lancaster Ave","units":22},"geometry":{"type":"Point","coordinates":[-97.31507,32.7459]}},{"type":"Feature","properties":{"name":"Oak Ridge Apartments","addr":"4808 E Lancaster Ave","units":28},"geometry":{"type":"Point","coordinates":[-97.24998,32.74017]}},{"type":"Feature","properties":{"name":"Hacienda Mobile Home Park","addr":"5232 E Lancaster Ave","units":30},"geometry":{"type":"Point","coordinates":[-97.24175,32.7398]}},{"type":"Feature","properties":{"addr":"714 Lariat Ln","units":4},"geometry":{"type":"Point","coordinates":[-97.46004,32.7707]}},{"type":"Feature","properties":{"addr":"718 Lariat Ln","units":4},"geometry":{"type":"Point","coordinates":[-97.46004,32.77089]}},{"type":"Feature","properties":{"name":"Azle Village Apartments","addr":"201 Las Bresas St","units":32},"geometry":{"type":"Point","coordinates":[-97.54457,32.90732]}},{"type":"Feature","properties":{"name":"Layton Mobile Manor","addr":"2112 Layton Ave","units":36},"geometry":{"type":"Point","coordinates":[-97.28118,32.79423]}},{"type":"Feature","properties":{"name":"Leuda-May Apartments","addr":"301-311 W Leuda St","units":22},"geometry":{"type":"Point","coordinates":[-97.32842,32.73632]}},{"type":"Feature","properties":{"addr":"5500 Lewis Ct","units":28},"geometry":{"type":"Point","coordinates":[-97.23413,32.84396]}},{"type":"Feature","properties":{"addr":"11116-11128 Liberty School Rd","units":12},"geometry":{"type":"Point","coordinates":[-97.52323,32.92868]}},{"type":"Feature","properties":{"addr":"2507 Lincoln Ave","units":5},"geometry":{"type":"Point","coordinates":[-97.35949,32.79052]}},{"type":"Feature","properties":{"addr":"917 Lipscomb St","units":5},"geometry":{"type":"Point","coordinates":[-97.33308,32.73496]}},{"type":"Feature","properties":{"addr":"1322 Lipscomb St","units":8},"geometry":{"type":"Point","coordinates":[-97.33361,32.72978]}},{"type":"Feature","properties":{"name":"Lipscomb Apts","addr":"1431 Lipscomb St","units":12},"geometry":{"type":"Point","coordinates":[-97.33293,32.72835]}},{"type":"Feature","properties":{"addr":"3950 Lisbon St","units":8},"geometry":{"type":"Point","coordinates":[-97.37513,32.72973]}},{"type":"Feature","properties":{"name":"West Apartments","addr":"4805-4833 Locke Ave","units":36},"geometry":{"type":"Point","coordinates":[-97.39197,32.73165]}},{"type":"Feature","properties":{"addr":"4832 Locke Ave","units":4},"geometry":{"type":"Point","coordinates":[-97.39288,32.73227]}},{"type":"Feature","properties":{"name":"5005 NE Loraine St","addr":"5005 NE Loraine St","units":20},"geometry":{"type":"Point","coordinates":[-97.27469,32.79634]}},{"type":"Feature","properties":{"name":"Chalet Apartments","addr":"1505 W Lovers Ln","units":20},"geometry":{"type":"Point","coordinates":[-97.13112,32.71565]}},{"type":"Feature","properties":{"addr":"1511 W Lovers Ln","units":8},"geometry":{"type":"Point","coordinates":[-97.13161,32.71562]}},{"type":"Feature","properties":{"name":"M25 Apartments","addr":"2100-2108 W Lowden St","units":34},"geometry":{"type":"Point","coordinates":[-97.34989,32.70991]}},{"type":"Feature","properties":{"name":"University Villas Apartments","addr":"2200 W Lowden St","units":40},"geometry":{"type":"Point","coordinates":[-97.35072,32.70985]}},{"type":"Feature","properties":{"addr":"2300-2306 W Lowden St","units":4},"geometry":{"type":"Point","coordinates":[-97.35143,32.70979]}},{"type":"Feature","properties":{"name":"Townhomes on Cantey","addr":"2800 Lubbock Ave","units":12},"geometry":{"type":"Point","coordinates":[-97.35633,32.71102]}},{"type":"Feature","properties":{"addr":"612 Luxton St","units":10},"geometry":{"type":"Point","coordinates":[-97.30828,32.73891]}},{"type":"Feature","properties":{"name":"Oak Tree Apartments","addr":"704 Lynda Ln","units":20},"geometry":{"type":"Point","coordinates":[-97.11543,32.7166]}},{"type":"Feature","properties":{"name":"Magnolia Loft Apartments","addr":"708 Magnolia St","units":22},"geometry":{"type":"Point","coordinates":[-97.12051,32.74364]}},{"type":"Feature","properties":{"name":"The Kress Building","addr":"604 Main St","units":26},"geometry":{"type":"Point","coordinates":[-97.331,32.75341]}},