{"type":"FeatureCollection","category":"Government - Other","count":129,"units":129,"features":[{"type":"Feature","properties":{"name":"236th District Court","addr":"300 E Weatherford St"},"geometry":{"type":"Point","coordinates":[-97.33125,32.75789]}},{"type":"Feature","properties":{"name":"348nd District Court","addr":"300 E Weatherford St"},"geometry":{"type":"Point","coordinates":[-97.33125,32.75789]}},{"type":"Feature","properties":{"name":"Air Force US Dept","addr":"2201 N Collins St"},"geometry":{"type":"Point","coordinates":[-97.09695,32.76921]}},{"type":"Feature","properties":{"name":"Andrew Doc Session Community","addr":"201 S Sylvania Ave"},"geometry":{"type":"Point","coordinates":[-97.30889,32.76423]}},{"type":"Feature","properties":{"name":"Armed Forces Career Center","addr":"6710 Hawks Creek Ave"},"geometry":{"type":"Point","coordinates":[-97.42872,32.75643]}},{"type":"Feature","properties":{"name":"Army Career Center","addr":"5854-5866 S Hulen St"},"geometry":{"type":"Point","coordinates":[-97.40249,32.66389]}},{"type":"Feature","properties":{"name":"Army Recruiting Inc","addr":"3301-3329 Altamesa"},"geometry":{"type":"Point","coordinates":[-97.36474,32.64929]}},{"type":"Feature","properties":{"name":"Attorney General","addr":"2001 Beach St"},"geometry":{"type":"Point","coordinates":[-97.28934,32.74827]}},{"type":"Feature","properties":{"name":"Azle Chamber Of Commerce","addr":"404 W Main St"},"geometry":{"type":"Point","coordinates":[-97.54709,32.89673]}},{"type":"Feature","properties":{"name":"Baseline 2 Baseline","addr":"3300 Bryant Irvin Rd"},"geometry":{"type":"Point","coordinates":[-97.41188,32.70462]}},{"type":"Feature","properties":{"name":"Bureau of Alcohol, Tobacco Firearms & Explosives","addr":"6000 Western Pl"},"geometry":{"type":"Point","coordinates":[-97.41426,32.735]}},{"type":"Feature","properties":{"name":"Burleson Fire Department","addr":"141 W Renfro St"},"geometry":{"type":"Point","coordinates":[-97.32213,32.54295]}},{"type":"Feature","properties":{"name":"Burleson Police Dept","addr":"1161 SW Wilshire Blvd"},"geometry":{"type":"Point","coordinates":[-97.34358,32.52523]}},{"type":"Feature","properties":{"name":"Chamber Of Commerce","addr":"601 Northwest Pky"},"geometry":{"type":"Point","coordinates":[-97.54736,32.90052]}},{"type":"Feature","properties":{"name":"Child Protective Service","addr":"6701-6775 Camp Bowie Blvd"},"geometry":{"type":"Point","coordinates":[-97.43426,32.72072]}},{"type":"Feature","properties":{"name":"City Town Village Township Government City Hall","addr":"5024 Broadway Ave"},"geometry":{"type":"Point","coordinates":[-97.27427,32.80958]}},{"type":"Feature","properties":{"name":"Colleyville City","addr":"100 Main St"},"geometry":{"type":"Point","coordinates":[-97.33293,32.75708]}},{"type":"Feature","properties":{"name":"Community Supervision Corrections","addr":"200-300 W Belknap St"},"geometry":{"type":"Point","coordinates":[-97.33546,32.75686]}},{"type":"Feature","properties":{"name":"Community Youth Development Program","addr":"2100 N Main St"},"geometry":{"type":"Point","coordinates":[-97.34913,32.78287]}},{"type":"Feature","properties":{"name":"Congressman Marc Veasey","addr":"6707 Brentwood Stair Rd"},"geometry":{"type":"Point","coordinates":[-97.21452,32.7544]}},{"type":"Feature","properties":{"name":"County Criminal Court Clerk","addr":"200 Taylor St"},"geometry":{"type":"Point","coordinates":[-97.33487,32.75529]}},{"type":"Feature","properties":{"name":"County Of Tarrant","addr":"200-300 W Belknap St"},"geometry":{"type":"Point","coordinates":[-97.33546,32.75686]}},{"type":"Feature","properties":{"name":"County Of Walker","addr":"2900 S Hulen St"},"geometry":{"type":"Point","coordinates":[-97.38696,32.70952]}},{"type":"Feature","properties":{"name":"County Tax Office","addr":"100 E Weatherford St"},"geometry":{"type":"Point","coordinates":[-97.33281,32.75714]}},{"type":"Feature","properties":{"name":"Crowley Area Chamber Of Commerce","addr":"201 N Hampton Ave"},"geometry":{"type":"Point","coordinates":[-97.35786,32.5794]}},{"type":"Feature","properties":{"name":"DEA's Office of Diversion Control","addr":"801 Cherry St"},"geometry":{"type":"Point","coordinates":[-97.33476,32.75093]}},{"type":"Feature","properties":{"name":"Department of Assistive and Rehabilitative Service","addr":"2400 Circle Dr"},"geometry":{"type":"Point","coordinates":[-97.30078,32.67851]}},{"type":"Feature","properties":{"name":"Department of Justice","addr":"2505 N State Highway 360"},"geometry":{"type":"Point","coordinates":[-97.05782,32.79219]}},{"type":"Feature","properties":{"name":"Development Corp-tarrant County","addr":"1509 S University Dr"},"geometry":{"type":"Point","coordinates":[-97.36121,32.73051]}},{"type":"Feature","properties":{"name":"DFW Officiants","addr":"707 North Fwy"},"geometry":{"type":"Point","coordinates":[-97.31963,32.77096]}},{"type":"Feature","properties":{"name":"Don Carter CityView","addr":"6601 Oakmont Blvd"},"geometry":{"type":"Point","coordinates":[-97.41072,32.66278]}},{"type":"Feature","properties":{"name":"Early Childhood Intervention","addr":"3880 Hulen St"},"geometry":{"type":"Point","coordinates":[-97.38687,32.72265]}},{"type":"Feature","properties":{"name":"Ecop Police Supply","addr":"2700 Tibbets Dr"},"geometry":{"type":"Point","coordinates":[-97.12314,32.83295]}},{"type":"Feature","properties":{"name":"Education Service Center Region 11","addr":"1451 S Cherry Ln"},"geometry":{"type":"Point","coordinates":[-97.45168,32.74473]}},{"type":"Feature","properties":{"name":"Federal Aviation Administration","addr":"10101 Hillwood Pky"},"geometry":{"type":"Point","coordinates":[-97.31253,32.91951]}},{"type":"Feature","properties":{"name":"Federal Bureau of Investigation","addr":"819 Taylor St"},"geometry":{"type":"Point","coordinates":[-97.33205,32.75124]}},{"type":"Feature","properties":{"name":"Fleet & Facility Operations","addr":"1314 Royal Pky"},"geometry":{"type":"Point","coordinates":[-97.11895,32.8189]}},{"type":"Feature","properties":{"name":"Forest Hill Public Works","addr":"3101 Horton Rd"},"geometry":{"type":"Point","coordinates":[-97.2846,32.68241]}},{"type":"Feature","properties":{"name":"Global Crossing Immigration, LLC.","addr":"610 S Industrial Blvd"},"geometry":{"type":"Point","coordinates":[-97.09973,32.83049]}},{"type":"Feature","properties":{"name":"GSA Greater Southwest Region 7","addr":"819 Taylor St"},"geometry":{"type":"Point","coordinates":[-97.33205,32.75124]}},{"type":"Feature","properties":{"name":"GSA Greater Southwest Region 7","addr":"819 Taylor St"},"geometry":{"type":"Point","coordinates":[-97.33205,32.75124]}},{"type":"Feature","properties":{"name":"GSA Greater Southwest Region 7","addr":"819 Taylor St"},"geometry":{"type":"Point","coordinates":[-97.33205,32.75124]}},{"type":"Feature","properties":{"name":"GT Industrial Properties Inc","addr":"3421 N Sylvania Ave"},"geometry":{"type":"Point","coordinates":[-97.30849,32.80624]}},{"type":"Feature","properties":{"name":"Haltom City Animal Control","addr":"5312 Midway Rd"},"geometry":{"type":"Point","coordinates":[-97.26953,32.79478]}},{"type":"Feature","properties":{"name":"Haltom City Building Inspections","addr":"5024 Broadway Ave"},"geometry":{"type":"Point","coordinates":[-97.27427,32.80958]}},{"type":"Feature","properties":{"name":"Haltom City Economic Development Co","addr":"5024 Broadway Ave"},"geometry":{"type":"Point","coordinates":[-97.27427,32.80958]}},{"type":"Feature","properties":{"name":"Haltom City Human Resources","addr":"5024 Broadway Ave"},"geometry":{"type":"Point","coordinates":[-97.27427,32.80958]}},{"type":"Feature","properties":{"name":"Haltom City Municipal Court","addr":"5024 Broadway Ave"},"geometry":{"type":"Point","coordinates":[-97.27427,32.80958]}},{"type":"Feature","properties":{"name":"Haltom City Police Department","addr":"5114 Broadway Ave"},"geometry":{"type":"Point","coordinates":[-97.27242,32.80958]}},{"type":"Feature","properties":{"name":"Haltom City Public Works","addr":"4200 Hollis St"},"geometry":{"type":"Point","coordinates":[-97.28542,32.79125]}},{"type":"Feature","properties":{"name":"Haltom City Secretary","addr":"5024 Broadway Ave"},"geometry":{"type":"Point","coordinates":[-97.27427,32.80958]}},{"type":"Feature","properties":{"name":"Haslet City Hall","addr":"101 Main St"},"geometry":{"type":"Point","coordinates":[-97.34812,32.97441]}},{"type":"Feature","properties":{"name":"Haslet City Office","addr":"101 Main St"},"geometry":{"type":"Point","coordinates":[-97.34812,32.97441]}},{"type":"Feature","properties":{"name":"Honorable John H Mcbryde","addr":"510 W 10th St"},"geometry":{"type":"Point","coordinates":[-97.33313,32.75006]}},{"type":"Feature","properties":{"name":"Human Services Texas Department","addr":"1500 S Main St"},"geometry":{"type":"Point","coordinates":[-97.32647,32.72814]}},{"type":"Feature","properties":{"name":"Hurr Law Office P C","addr":"4717 Fletcher Ave"},"geometry":{"type":"Point","coordinates":[-97.38884,32.72429]}},{"type":"Feature","properties":{"name":"Hurst Police Department","addr":"309 E Hurst Blvd"},"geometry":{"type":"Point","coordinates":[-97.16598,32.80903]}},{"type":"Feature","properties":{"name":"Internal Revenue Service","addr":"5450 Stratum Dr"},"geometry":{"type":"Point","coordinates":[-97.29819,32.84229]}},{"type":"Feature","properties":{"name":"National Guard","addr":"4801-4875 Bryant Irvin Rd"},"geometry":{"type":"Point","coordinates":[-97.41516,32.67873]}},{"type":"Feature","properties":{"name":"National Labor Relations Board","addr":"819 Taylor St"},"geometry":{"type":"Point","coordinates":[-97.33205,32.75124]}},{"type":"Feature","properties":{"name":"National Oceanic and Atmospheric Administration","addr":"3401 Northern Cross Blvd"},"geometry":{"type":"Point","coordinates":[-97.2992,32.83461]}},{"type":"Feature","properties":{"name":"North Richland Hills Tax Info","addr":"100 E Weatherford St"},"geometry":{"type":"Point","coordinates":[-97.33281,32.75714]}},{"type":"Feature","properties":{"name":"NTTA","addr":"6487 Camp Bowie Blvd"},"geometry":{"type":"Point","coordinates":[-97.42686,32.72383]}},{"type":"Feature","properties":{"name":"Office of Inspector General","addr":"819 Taylor St"},"geometry":{"type":"Point","coordinates":[-97.33205,32.75124]}},{"type":"Feature","properties":{"name":"Overlay Wealth Management","addr":"1200 Summit Ave"},"geometry":{"type":"Point","coordinates":[-97.3417,32.74598]}},{"type":"Feature","properties":{"name":"Parole Supervision","addr":"3912-3916 NE 28th St"},"geometry":{"type":"Point","coordinates":[-97.29017,32.79505]}},{"type":"Feature","properties":{"name":"Pretreatment Services","addr":"1900 NE Loop 820"},"geometry":{"type":"Point","coordinates":[-97.32957,32.83968]}},{"type":"Feature","properties":{"name":"Representative Nicole Collier","addr":"101 S Jennings Ave"},"geometry":{"type":"Point","coordinates":[-97.32992,32.74371]}},{"type":"Feature","properties":{"name":"Saginaw Fire Department","addr":"400 S Saginaw Blvd"},"geometry":{"type":"Point","coordinates":[-97.36157,32.85665]}},{"type":"Feature","properties":{"name":"Senator Beverly Powell","addr":"1612 Summit Ave"},"geometry":{"type":"Point","coordinates":[-97.34216,32.7431]}},{"type":"Feature","properties":{"name":"Social Security Office","addr":"2901 Altamesa Blvd"},"geometry":{"type":"Point","coordinates":[-97.35966,32.64879]}},{"type":"Feature","properties":{"name":"State of Texas","addr":"2700 Ben Ave"},"geometry":{"type":"Point","coordinates":[-97.27949,32.74173]}},{"type":"Feature","properties":{"name":"State of Texas","addr":"6900 Anderson Blvd"},"geometry":{"type":"Point","coordinates":[-97.21069,32.76318]}},{"type":"Feature","properties":{"name":"State of Texas","addr":"6100 Western Pl"},"geometry":{"type":"Point","coordinates":[-97.41645,32.735]}},{"type":"Feature","properties":{"name":"State of Texas","addr":"3100 E Lancaster Ave"},"geometry":{"type":"Point","coordinates":[-97.28056,32.73972]}},{"type":"Feature","properties":{"name":"State of Texas","addr":"4040 Fossil Creek Blvd"},"geometry":{"type":"Point","coordinates":[-97.29807,32.8476]}},{"type":"Feature","properties":{"name":"State Office of Administrative Hearings","addr":"6777 Camp Bowie Blvd"},"geometry":{"type":"Point","coordinates":[-97.43433,32.72069]}},{"type":"Feature","properties":{"name":"State-tx Dept-assistive","addr":"2400 Circle Dr"},"geometry":{"type":"Point","coordinates":[-97.30078,32.67851]}},{"type":"Feature","properties":{"name":"Tapps","addr":"3575 Lone Star Cir"},"geometry":{"type":"Point","coordinates":[-97.27803,33.03371]}},{"type":"Feature","properties":{"name":"Tarrant Youth Recovery Campus","addr":"1527 Hemphill St"},"geometry":{"type":"Point","coordinates":[-97.33147,32.72768]}},{"type":"Feature","properties":{"name":"Texas A&M Agrilife Ext. Tarrant County","addr":"200 Taylor St"},"geometry":{"type":"Point","coordinates":[-97.33487,32.75529]}},{"type":"Feature","properties":{"name":"Texas Child Support Division - Services Office","addr":"2001 Beach St"},"geometry":{"type":"Point","coordinates":[-97.28934,32.74827]}},{"type":"Feature","properties":{"name":"Texas Comptroller of Public Accounts","addr":"831 W Euless Blvd"},"geometry":{"type":"Point","coordinates":[-97.09538,32.83089]}},{"type":"Feature","properties":{"name":"Texas Department of Criminal Justice","addr":"4836 Carey St"},"geometry":{"type":"Point","coordinates":[-97.24332,32.69152]}},{"type":"Feature","properties":{"name":"Texas Department of Criminal Justice","addr":"3628 McCart Ave"},"geometry":{"type":"Point","coordinates":[-97.35305,32.69509]}},{"type":"Feature","properties":{"name":"Texas Department of Criminal Justice","addr":"3912-3916 NE 28th St"},"geometry":{"type":"Point","coordinates":[-97.29017,32.79505]}},{"type":"Feature","properties":{"name":"Texas Department of Public Safety","addr":"5816 Azle Ave"},"geometry":{"type":"Point","coordinates":[-97.40876,32.8127]}},{"type":"Feature","properties":{"name":"Texas Health and Human Services Commission","addr":"4701-4733 E Lancaster Ave"},"geometry":{"type":"Point","coordinates":[-97.25142,32.74106]}},{"type":"Feature","properties":{"name":"Texas Parks & Wildlife Department","addr":"5400 Airport Fwy"},"geometry":{"type":"Point","coordinates":[-97.26757,32.78408]}},{"type":"Feature","properties":{"name":"Texas Railroad Commission","addr":"401 W 13th St"},"geometry":{"type":"Point","coordinates":[-97.33209,32.74778]}},{"type":"Feature","properties":{"name":"Texas Workforce Commission","addr":"301 W 13th St"},"geometry":{"type":"Point","coordinates":[-97.3312,32.74782]}},{"type":"Feature","properties":{"name":"Texas Youth Commission","addr":"2462 E Long Ave"},"geometry":{"type":"Point","coordinates":[-97.31826,32.80601]}},{"type":"Feature","properties":{"name":"Texican Southern LLC","addr":"2800 S Hulen St"},"geometry":{"type":"Point","coordinates":[-97.38643,32.71102]}},{"type":"Feature","properties":{"name":"Trinity Metro","addr":"801 Grove St"},"geometry":{"type":"Point","coordinates":[-97.32683,32.75415]}},{"type":"Feature","properties":{"name":"TX Workers' Compensation Commission","addr":"6900 Anderson Blvd"},"geometry":{"type":"Point","coordinates":[-97.21069,32.76318]}},{"type":"Feature","properties":{"name":"U.S. Army Corps of Engineers","addr":"819 Taylor St"},"geometry":{"type":"Point","coordinates":[-97.33205,32.75124]}},{"type":"Feature","properties":{"name":"U.S. Customs and Border Protection","addr":"150 Westpark Way"},"geometry":{"type":"Point","coordinates":[-97.11971,32.83639]}},{"type":"Feature","properties":{"name":"U.S. Department of Agriculture","addr":"2732 Shamrock Ave"},"geometry":{"type":"Point","coordinates":[-97.35511,32.76285]}},{"type":"Feature","properties":{"name":"U.S. Department of Defense","addr":"2201 N Collins St"},"geometry":{"type":"Point","coordinates":[-97.09695,32.76921]}},{"type":"Feature","properties":{"name":"U.S. Department of Housing and Urban Development","addr":"801 Cherry St"},"geometry":{"type":"Point","coordinates":[-97.33476,32.75093]}},{"type":"Feature","properties":{"name":"U.S. Fish And Wildlife Service","addr":"2005 NE Green Oaks Blvd"},"geometry":{"type":"Point","coordinates":[-97.07445,32.77749]}},{"type":"Feature","properties":{"name":"U.S. National Archives & Records Administration","addr":"1400 John Burgess Dr"},"geometry":{"type":"Point","coordinates":[-97.30661,32.63517]}},{"type":"Feature","properties":{"name":"U.S. SEC Real Property and Leasing Branch","addr":"801 Cherry St"},"geometry":{"type":"Point","coordinates":[-97.33476,32.75093]}},{"type":"Feature","properties":{"name":"U.S. Small Business Administration","addr":"14951 Kingsport Rd"},"geometry":{"type":"Point","coordinates":[-97.03932,32.83279]}},{"type":"Feature","properties":{"name":"U.S. Small Business Administration","addr":"14925 Kingsport Dr"},"geometry":{"type":"Point","coordinates":[-97.03877,32.83224]}},{"type":"Feature","properties":{"name":"U.S. Small Business Administration","addr":"150 Westpark Way"},"geometry":{"type":"Point","coordinates":[-97.11971,32.83639]}},{"type":"Feature","properties":{"name":"U.S. Small Business Administration","addr":"4300 Amon Carter Blvd"},"geometry":{"type":"Point","coordinates":[-97.04892,32.82562]}},{"type":"Feature","properties":{"name":"United States Department of Veterans Affairs","addr":"1200 Circle Dr"},"geometry":{"type":"Point","coordinates":[-97.30155,32.67236]}},{"type":"Feature","properties":{"name":"United States Navy","addr":"6242-6318 Hulen Bend Blvd"},"geometry":{"type":"Point","coordinates":[-97.40451,32.65951]}},{"type":"Feature","properties":{"name":"United States Navy","addr":"6435-6451 McCart Ave"},"geometry":{"type":"Point","coordinates":[-97.36642,32.65057]}},{"type":"Feature","properties":{"name":"US Air Force Recruiting","addr":"6435-6451 McCart Ave"},"geometry":{"type":"Point","coordinates":[-97.36642,32.65057]}},{"type":"Feature","properties":{"name":"US Army Medical Recruiting","addr":"2505 N State Highway 360"},"geometry":{"type":"Point","coordinates":[-97.05782,32.79219]}},{"type":"Feature","properties":{"name":"US Army Recruiting","addr":"3301-3329 Altamesa"},"geometry":{"type":"Point","coordinates":[-97.36474,32.64929]}},{"type":"Feature","properties":{"name":"US Army Recruiting Inc","addr":"1351 SW Wilshire Blvd"},"geometry":{"type":"Point","coordinates":[-97.3468,32.52193]}},{"type":"Feature","properties":{"name":"US Attorney","addr":"801 Cherry St"},"geometry":{"type":"Point","coordinates":[-97.33476,32.75093]}},{"type":"Feature","properties":{"name":"US Bankruptcy Court","addr":"510 W 10th St"},"geometry":{"type":"Point","coordinates":[-97.33313,32.75006]}},{"type":"Feature","properties":{"name":"US Department of Health & Human Services","addr":"7450 John T White Blvd"},"geometry":{"type":"Point","coordinates":[-97.19461,32.76564]}},{"type":"Feature","properties":{"name":"US Federal Railroad Admin","addr":"4100 International Plz"},"geometry":{"type":"Point","coordinates":[-97.39975,32.68968]}},{"type":"Feature","properties":{"name":"US Federal Transit Admin","addr":"819 Taylor St"},"geometry":{"type":"Point","coordinates":[-97.33205,32.75124]}},{"type":"Feature","properties":{"name":"US Geological Water Resources","addr":"501 W Felix St"},"geometry":{"type":"Point","coordinates":[-97.32918,32.678]}},{"type":"Feature","properties":{"name":"US Housing & Urban Development Department","addr":"307 W 7th St"},"geometry":{"type":"Point","coordinates":[-97.33152,32.75182]}},{"type":"Feature","properties":{"name":"US Housing & Urban Development Department","addr":"819 Taylor St"},"geometry":{"type":"Point","coordinates":[-97.33205,32.75124]}},{"type":"Feature","properties":{"name":"Us Marine Corps Officer Selection Office Fort...","addr":"2709-2715 W Berry St"},"geometry":{"type":"Point","coordinates":[-97.35612,32.70606]}},{"type":"Feature","properties":{"name":"US Naval Recruiting","addr":"2301 N Collins St"},"geometry":{"type":"Point","coordinates":[-97.09698,32.77272]}},{"type":"Feature","properties":{"name":"US Veterans Affairs Department","addr":"1200 Circle Dr"},"geometry":{"type":"Point","coordinates":[-97.30155,32.67236]}},{"type":"Feature","properties":{"name":"Vital Records for Tarrant County","addr":"200 Taylor St"},"geometry":{"type":"Point","coordinates":[-97.33487,32.75529]}},{"type":"Feature","properties":{"name":"Wat Lao Thapnimith-Tarrant","addr":"7105 Marvin Brown St"},"geometry":{"type":"Point","coordinates":[-97.41436,32.86488]}},{"type":"Feature","properties":{"name":"WIC","addr":"1100 Bridgewood Dr"},"geometry":{"type":"Point","coordinates":[-97.21773,32.76491]}},{"type":"Feature","properties":{"name":"Womens Center","addr":"1723 Hemphill St"},"geometry":{"type":"Point","coordinates":[-97.33149,32.72465]}}]}