{"type":"FeatureCollection","carrier":"E8 Wireless Network","count":21,"features":[{"type":"Feature","properties":{"name":"Annetta South","carrier":"E8 Wireless Network"},"geometry":{"type":"Point","coordinates":[-97.73056,32.67533]}},{"type":"Feature","properties":{"name":"Avondale","carrier":"E8 Wireless Network"},"geometry":{"type":"Point","coordinates":[-97.41002,32.96897]}},{"type":"Feature","properties":{"name":"Crowley","carrier":"E8 Wireless Network"},"geometry":{"type":"Point","coordinates":[-97.41303,32.53663]}},{"type":"Feature","properties":{"name":"Farmersville","carrier":"E8 Wireless Network"},"geometry":{"type":"Point","coordinates":[-96.3802,33.15467]}},{"type":"Feature","properties":{"name":"Gainesville","carrier":"E8 Wireless Network"},"geometry":{"type":"Point","coordinates":[-97.03053,33.65593]}},{"type":"Feature","properties":{"name":"Glenwood","carrier":"E8 Wireless Network"},"geometry":{"type":"Point","coordinates":[-97.22561,32.41338]}},{"type":"Feature","properties":{"name":"Lakeside","carrier":"E8 Wireless Network"},"geometry":{"type":"Point","coordinates":[-97.48598,32.82776]}},{"type":"Feature","properties":{"name":"Greenville_Lee","carrier":"E8 Wireless Network"},"geometry":{"type":"Point","coordinates":[-96.10106,33.13864]}},{"type":"Feature","properties":{"name":"Liston Farms","carrier":"E8 Wireless Network"},"geometry":{"type":"Point","coordinates":[-96.27993,32.76571]}},{"type":"Feature","properties":{"name":"Midlothian","carrier":"E8 Wireless Network"},"geometry":{"type":"Point","coordinates":[-96.95524,32.40935]}},{"type":"Feature","properties":{"name":"Mineral Wells","carrier":"E8 Wireless Network"},"geometry":{"type":"Point","coordinates":[-98.10365,32.81103]}},{"type":"Feature","properties":{"name":"Princeton","carrier":"E8 Wireless Network"},"geometry":{"type":"Point","coordinates":[-96.48236,33.1825]}},{"type":"Feature","properties":{"name":"Rhome","carrier":"E8 Wireless Network"},"geometry":{"type":"Point","coordinates":[-97.46606,33.05775]}},{"type":"Feature","properties":{"name":"Richardson","carrier":"E8 Wireless Network"},"geometry":{"type":"Point","coordinates":[-96.73588,32.94383]}},{"type":"Feature","properties":{"name":"South Gainesville","carrier":"E8 Wireless Network"},"geometry":{"type":"Point","coordinates":[-97.13356,33.60097]}},{"type":"Feature","properties":{"name":"Ten Mile","carrier":"E8 Wireless Network"},"geometry":{"type":"Point","coordinates":[-97.47616,32.86499]}},{"type":"Feature","properties":{"name":"Waxahachie","carrier":"E8 Wireless Network"},"geometry":{"type":"Point","coordinates":[-96.85741,32.47047]}},{"type":"Feature","properties":{"name":"Weatherford","carrier":"E8 Wireless Network"},"geometry":{"type":"Point","coordinates":[-97.88224,32.72982]}},{"type":"Feature","properties":{"name":"White Settlement","carrier":"E8 Wireless Network"},"geometry":{"type":"Point","coordinates":[-97.7252,32.78337]}},{"type":"Feature","properties":{"name":"Whitt","carrier":"E8 Wireless Network"},"geometry":{"type":"Point","coordinates":[-98.07583,32.92078]}},{"type":"Feature","properties":{"name":"Williamson","carrier":"E8 Wireless Network"},"geometry":{"type":"Point","coordinates":[-97.72045,32.39558]}}]}